[{"id":"id","identificador":"identificador","ubicacion":"ubicacion","latitud":"latitud","longitud":"longitud","municipio_id":"municipio_id","provincia_id":"provincia_id","id_departamento":"id_departamento","municipio":"municipio","provincia":"provincia","departamento":"departamento"},{"id":"723","identificador":"LRJ015-01","ubicacion":"Delegacion Municipal","latitud":"-31.210106","longitud":"-66.312253","municipio_id":"LRJ015","provincia_id":"AR-F","id_departamento":"1511","municipio":"Rosario Vera Peñaloza","provincia":"La Rioja","departamento":"Rosario Vera Peñaloza"},{"id":"342","identificador":"CHA017-01","ubicacion":"Polideportivo","latitud":"-27.529667","longitud":"-59.572583","municipio_id":"CHA017","provincia_id":"AR-H","id_departamento":"1349","municipio":"Cote-Lai","provincia":"Chaco","departamento":"Tapenaga"},{"id":"979","identificador":"LRJ014-01","ubicacion":"Punto Digital","latitud":"-29.435861","longitud":"-66.859408","municipio_id":"LRJ014","provincia_id":"AR-F","id_departamento":"1510","municipio":"La Rioja","provincia":"La Rioja","departamento":"Capital"},{"id":"1291","identificador":"CHU031-01","ubicacion":null,"latitud":"0.000000","longitud":"0.000000","municipio_id":"CHU031","provincia_id":"AR-U","id_departamento":"1379","municipio":"Paso de Indios","provincia":"Chubut","departamento":"Paso de Indios"},{"id":"1071","identificador":"RNO032-01","ubicacion":null,"latitud":"-40.815934","longitud":"-64.757752","municipio_id":"RNO032","provincia_id":"AR-R","id_departamento":"1578","municipio":"San Antonio Oeste","provincia":"Río Negro","departamento":"San Antonio"},{"id":"982","identificador":"TUC034-01","ubicacion":"Puestito PD","latitud":"-26.420287","longitud":"-64.784684","municipio_id":"TUC034","provincia_id":"AR-T","id_departamento":"1651","municipio":"El Puestito","provincia":"Tucumán","departamento":"Burruyacu"},{"id":"965","identificador":"TUC034-02","ubicacion":"Comuna","latitud":"-26.420030","longitud":"-64.775878","municipio_id":"TUC034","provincia_id":"AR-T","id_departamento":"1651","municipio":"El Puestito","provincia":"Tucumán","departamento":"Burruyacu"},{"id":"1211","identificador":"MIS052-01","ubicacion":null,"latitud":"0.000000","longitud":"0.000000","municipio_id":"MIS052","provincia_id":"AR-N","id_departamento":"1541","municipio":"Montecarlo","provincia":"Misiones","departamento":"Montecarlo"},{"id":"160","identificador":"MIS052-02","ubicacion":"Punto Digital","latitud":"-26.566037","longitud":"-54.769589","municipio_id":"MIS052","provincia_id":"AR-N","id_departamento":"1541","municipio":"Montecarlo","provincia":"Misiones","departamento":"Montecarlo"},{"id":"583","identificador":"SFE362-01","ubicacion":null,"latitud":"0.000000","longitud":"0.000000","municipio_id":"SFE362","provincia_id":"AR-S","id_departamento":"1690","municipio":"Colonia Dolores","provincia":"Santa Fe","departamento":"San Justo"},{"id":"1075","identificador":"SAL031-01","ubicacion":null,"latitud":"-26.126871","longitud":"-65.051892","municipio_id":"SAL031","provincia_id":"AR-A","id_departamento":"1671","municipio":"La Candelaria","provincia":"Salta","departamento":"La Candelaria"},{"id":"1012","identificador":"JUJ013-01","ubicacion":"Central Telefonica 2","latitud":"-23.033535","longitud":"-66.400008","municipio_id":"JUJ013","provincia_id":"AR-Y","id_departamento":"1465","municipio":"Coranzuli","provincia":"Jujuy","departamento":"Susques"},{"id":"1013","identificador":"JUJ013-02","ubicacion":"Punto Digital","latitud":"-23.033535","longitud":"-66.400008","municipio_id":"JUJ013","provincia_id":"AR-Y","id_departamento":"1465","municipio":"Coranzuli","provincia":"Jujuy","departamento":"Susques"},{"id":"535","identificador":"JUJ013-03","ubicacion":"Central Telefonica 1","latitud":"-23.033535","longitud":"-66.400008","municipio_id":"JUJ013","provincia_id":"AR-Y","id_departamento":"1465","municipio":"Coranzuli","provincia":"Jujuy","departamento":"Susques"},{"id":"1020","identificador":"SAL014-01","ubicacion":"Punto Digital","latitud":"-25.077398","longitud":"-65.488602","municipio_id":"SAL014","provincia_id":"AR-A","id_departamento":"1667","municipio":"El Carril","provincia":"Salta","departamento":"Chicoana"},{"id":"635","identificador":"TUC009-01","ubicacion":"Vsat Anca Juli","latitud":"-26.583710","longitud":"-65.566692","municipio_id":"TUC009","provincia_id":"AR-T","id_departamento":"1649","municipio":"Anca Juli","provincia":"Tucumán","departamento":"Tafi Viejo"},{"id":"1022","identificador":"TUC009-02","ubicacion":"San Jose de Chasquivil","latitud":"-26.690028","longitud":"-65.605361","municipio_id":"TUC009","provincia_id":"AR-T","id_departamento":"1649","municipio":"Anca Juli","provincia":"Tucumán","departamento":"Tafi Viejo"},{"id":"1202","identificador":"SFE360-01","ubicacion":null,"latitud":"0.000000","longitud":"0.000000","municipio_id":"SFE360","provincia_id":"AR-S","id_departamento":"1684","municipio":"Zavalla","provincia":"Santa Fe","departamento":"Rosario"},{"id":"957","identificador":"MIS053-01","ubicacion":"Punto Digital","latitud":"-26.386112","longitud":"-54.465909","municipio_id":"MIS053","provincia_id":"AR-N","id_departamento":"1542","municipio":"Nueve de Julio","provincia":"Misiones","departamento":"Eldorado"},{"id":"714","identificador":"JUJ030-01","ubicacion":"Mina Pirquitas - Municipalidad","latitud":"-22.683556","longitud":"-66.483556","municipio_id":"JUJ030","provincia_id":"AR-Y","id_departamento":"1470","municipio":"Mina Pirquitas","provincia":"Jujuy","departamento":"Rinconada"},{"id":"1014","identificador":"JUJ030-02","ubicacion":"Coyaguaima","latitud":"-22.769624","longitud":"-66.440835","municipio_id":"JUJ030","provincia_id":"AR-Y","id_departamento":"1470","municipio":"Mina Pirquitas","provincia":"Jujuy","departamento":"Rinconada"},{"id":"986","identificador":"CBA222-01","ubicacion":"Plazoleta Municipal","latitud":"-30.926684","longitud":"-64.500396","municipio_id":"CBA222","provincia_id":"AR-X","id_departamento":"1396","municipio":"Los Cocos","provincia":"Córdoba","departamento":"Punilla"},{"id":"272","identificador":"CBA222-02","ubicacion":"PD Los Cocos","latitud":"-30.925047","longitud":"-64.506365","municipio_id":"CBA222","provincia_id":"AR-X","id_departamento":"1396","municipio":"Los Cocos","provincia":"Córdoba","departamento":"Punilla"},{"id":"552","identificador":"CHA068-01","ubicacion":null,"latitud":"-25.636944","longitud":"-60.265194","municipio_id":"CHA068","provincia_id":"AR-H","id_departamento":"1358","municipio":"Villa Río Bermejito","provincia":"Chaco","departamento":"General Güemes"},{"id":"1179","identificador":"RNO057-01","ubicacion":null,"latitud":"0.000000","longitud":"0.000000","municipio_id":"RNO057","provincia_id":"AR-R","id_departamento":"1576","municipio":"Mamuel Choique","provincia":"Río Negro","departamento":"Ñorquinco"},{"id":"1087","identificador":"TUC107-01","ubicacion":null,"latitud":"-27.333221","longitud":"-65.750038","municipio_id":"TUC107","provincia_id":"AR-T","id_departamento":"1650","municipio":"Villa Chicligasta","provincia":"Tucumán","departamento":"Simoca"},{"id":"732","identificador":"MZA013-01","ubicacion":"San Carlos (Pza San Carlos)","latitud":"-33.772160","longitud":"-69.040690","municipio_id":"MZA013","provincia_id":"AR-M","id_departamento":"1527","municipio":"San Carlos","provincia":"Mendoza","departamento":"San Carlos"},{"id":"1011","identificador":"MZA013-02","ubicacion":"Pasaje Rural 3 Esquinas","latitud":"-33.837221","longitud":"-69.067026","municipio_id":"MZA013","provincia_id":"AR-M","id_departamento":"1527","municipio":"San Carlos","provincia":"Mendoza","departamento":"San Carlos"},{"id":"674","identificador":"MZA013-03","ubicacion":"Pareditas","latitud":"-34.000000","longitud":"-69.000000","municipio_id":"MZA013","provincia_id":"AR-M","id_departamento":"1527","municipio":"San Carlos","provincia":"Mendoza","departamento":"San Carlos"},{"id":"792","identificador":"MZA013-04","ubicacion":"San Carlos(Rio Tunuyan)","latitud":"-33.717179","longitud":"-69.153724","municipio_id":"MZA013","provincia_id":"AR-M","id_departamento":"1527","municipio":"San Carlos","provincia":"Mendoza","departamento":"San Carlos"},{"id":"731","identificador":"MZA013-05","ubicacion":"San Carlos (La Consulta)","latitud":"-33.733960","longitud":"-69.119956","municipio_id":"MZA013","provincia_id":"AR-M","id_departamento":"1527","municipio":"San Carlos","provincia":"Mendoza","departamento":"San Carlos"},{"id":"931","identificador":"MZA013-06","ubicacion":"Punto Digital","latitud":"-33.773696","longitud":"-69.048596","municipio_id":"MZA013","provincia_id":"AR-M","id_departamento":"1527","municipio":"San Carlos","provincia":"Mendoza","departamento":"San Carlos"},{"id":"576","identificador":"MZA013-07","ubicacion":"San Carlos (Pza Salud)","latitud":"-33.776855","longitud":"-69.041806","municipio_id":"MZA013","provincia_id":"AR-M","id_departamento":"1527","municipio":"San Carlos","provincia":"Mendoza","departamento":"San Carlos"},{"id":"508","identificador":"SGO105-01","ubicacion":null,"latitud":"-27.686083","longitud":"-64.750583","municipio_id":"SGO105","provincia_id":"AR-G","id_departamento":"1627","municipio":"Doña Luisa","provincia":"Santiago del Estero","departamento":"Guasayan"},{"id":"1090","identificador":"SFE108-01","ubicacion":null,"latitud":"-31.059175","longitud":"-60.744975","municipio_id":"SFE108","provincia_id":"AR-S","id_departamento":"1694","municipio":"Emilia","provincia":"Santa Fe","departamento":"La Capital"},{"id":"1117","identificador":"JUJ041-01","ubicacion":null,"latitud":"0.000000","longitud":"0.000000","municipio_id":"JUJ041","provincia_id":"AR-Y","id_departamento":"1470","municipio":"Rinconada","provincia":"Jujuy","departamento":"Rinconada"},{"id":"1305","identificador":"SAL057-01","ubicacion":null,"latitud":"0.000000","longitud":"0.000000","municipio_id":"SAL057","provincia_id":"AR-A","id_departamento":"1675","municipio":"Vaqueros","provincia":"Salta","departamento":"La Caldera"},{"id":"938","identificador":"ERI037-01","ubicacion":"Punto Digital","latitud":"-32.391618","longitud":"-59.799701","municipio_id":"ERI037","provincia_id":"AR-E","id_departamento":"1435","municipio":"Nogoyá","provincia":"Entre Ríos","departamento":"Nogoya"},{"id":"394","identificador":"ERI037-02","ubicacion":"Paseo de Los Puentes","latitud":"-32.395555","longitud":"-59.759957","municipio_id":"ERI037","provincia_id":"AR-E","id_departamento":"1435","municipio":"Nogoyá","provincia":"Entre Ríos","departamento":"Nogoya"},{"id":"1193","identificador":"ERI037-03","ubicacion":null,"latitud":"0.000000","longitud":"0.000000","municipio_id":"ERI037","provincia_id":"AR-E","id_departamento":"1435","municipio":"Nogoyá","provincia":"Entre Ríos","departamento":"Nogoya"},{"id":"395","identificador":"ERI037-04","ubicacion":"Nogoya - Pza Francisco Ramirez","latitud":"-32.396826","longitud":"-59.795364","municipio_id":"ERI037","provincia_id":"AR-E","id_departamento":"1435","municipio":"Nogoyá","provincia":"Entre Ríos","departamento":"Nogoya"},{"id":"340","identificador":"MIS060-01","ubicacion":null,"latitud":"0.000000","longitud":"0.000000","municipio_id":"MIS060","provincia_id":"AR-N","id_departamento":"1540","municipio":"Puerto Leoni","provincia":"Misiones","departamento":"Libertador General San Martin"},{"id":"369","identificador":"LAP075-01","ubicacion":"Colonia El Sauzal","latitud":"-37.709467","longitud":"-67.742389","municipio_id":"LAP075","provincia_id":"AR-L","id_departamento":"1494","municipio":"Veinticinco de Mayo","provincia":"La Pampa","departamento":"Puelen"},{"id":"558","identificador":"LAP075-02","ubicacion":"Colonia Chica","latitud":"-37.958194","longitud":"-67.825556","municipio_id":"LAP075","provincia_id":"AR-L","id_departamento":"1494","municipio":"Veinticinco de Mayo","provincia":"La Pampa","departamento":"Puelen"},{"id":"559","identificador":"LAP075-03","ubicacion":null,"latitud":"0.000000","longitud":"0.000000","municipio_id":"LAP075","provincia_id":"AR-L","id_departamento":"1494","municipio":"Veinticinco de Mayo","provincia":"La Pampa","departamento":"Puelen"},{"id":"270","identificador":"MIS061-01","ubicacion":"PD Puerto Piray","latitud":"-26.467529","longitud":"-54.718663","municipio_id":"MIS061","provincia_id":"AR-N","id_departamento":"1541","municipio":"Puerto Piray","provincia":"Misiones","departamento":"Montecarlo"},{"id":"663","identificador":"CHU021-01","ubicacion":"salon de usos multiples","latitud":"-43.000000","longitud":"-68.000000","municipio_id":"CHU021","provincia_id":"AR-U","id_departamento":"1375","municipio":"Gan Gan","provincia":"Chubut","departamento":"Telsen"},{"id":"1253","identificador":"NEU032-01","ubicacion":null,"latitud":"0.000000","longitud":"0.000000","municipio_id":"NEU032","provincia_id":"AR-Q","id_departamento":"1553","municipio":"Quili Malal","provincia":"Neuquén","departamento":"Picunches"},{"id":"364","identificador":"SLU057-01","ubicacion":"Punto Digital","latitud":"-35.150680","longitud":"-65.941011","municipio_id":"SLU057","provincia_id":"AR-D","id_departamento":"1599","municipio":"Union","provincia":"San Luis","departamento":"Gobernador Dupuy"},{"id":"1201","identificador":"SFE301-01","ubicacion":null,"latitud":"0.000000","longitud":"0.000000","municipio_id":"SFE301","provincia_id":"AR-S","id_departamento":"1683","municipio":"Sancti Spiritu","provincia":"Santa Fe","departamento":"General Lopez"},{"id":"1237","identificador":"SAL005-01","ubicacion":null,"latitud":"0.000000","longitud":"0.000000","municipio_id":"SAL005","provincia_id":"AR-A","id_departamento":"1663","municipio":"Cachi","provincia":"Salta","departamento":"Cachi"},{"id":"759","identificador":"RNO028-01","ubicacion":null,"latitud":"-41.851986","longitud":"-70.901294","municipio_id":"RNO028","provincia_id":"AR-R","id_departamento":"1576","municipio":"Ñorquincó","provincia":"Río Negro","departamento":"Ñorquinco"},{"id":"1311","identificador":"SLU005-01","ubicacion":null,"latitud":"0.000000","longitud":"0.000000","municipio_id":"SLU005","provincia_id":"AR-D","id_departamento":"1599","municipio":"Bagual","provincia":"San Luis","departamento":"Gobernador Dupuy"},{"id":"916","identificador":"SFE203-01","ubicacion":"Punto Digital","latitud":"-32.781098","longitud":"-60.906851","municipio_id":"SFE203","provincia_id":"AR-S","id_departamento":"1687","municipio":"Luis Palacios","provincia":"Santa Fe","departamento":"San Lorenzo"},{"id":"198","identificador":"SFE203-02","ubicacion":"Plaza Ferrocarril","latitud":"-32.782851","longitud":"-60.905379","municipio_id":"SFE203","provincia_id":"AR-S","id_departamento":"1687","municipio":"Luis Palacios","provincia":"Santa Fe","departamento":"San Lorenzo"},{"id":"726","identificador":"LRJ011-01","ubicacion":"Municipalidad","latitud":"-31.000000","longitud":"-66.000000","municipio_id":"LRJ011","provincia_id":"AR-F","id_departamento":"1507","municipio":"General Ocampo","provincia":"La Rioja","departamento":"General Ortiz de Ocampo"},{"id":"655","identificador":"SJU003-01","ubicacion":"Villa Nueva- Escuela Alvarez Condarco","latitud":"-31.000000","longitud":"-70.000000","municipio_id":"SJU003","provincia_id":"AR-J","id_departamento":"1581","municipio":"Calingasta","provincia":"San Juan","departamento":"Calingasta"},{"id":"268","identificador":"SJU003-02","ubicacion":"PD Calingasta","latitud":"-31.339258","longitud":"-69.426629","municipio_id":"SJU003","provincia_id":"AR-J","id_departamento":"1581","municipio":"Calingasta","provincia":"San Juan","departamento":"Calingasta"},{"id":"905","identificador":"NEU012-01","ubicacion":null,"latitud":"-37.440534","longitud":"-70.644644","municipio_id":"NEU012","provincia_id":"AR-Q","id_departamento":"1555","municipio":"El Cholar","provincia":"Neuquén","departamento":"Ñorquin"},{"id":"602","identificador":"COR065-01","ubicacion":null,"latitud":"-29.471753","longitud":"-56.814896","municipio_id":"COR065","provincia_id":"AR-W","id_departamento":"1415","municipio":"Yapeyú","provincia":"Corrientes","departamento":"San Martin"},{"id":"279","identificador":"BUE131-01","ubicacion":"Vicente Lopez - Estacion Alvarez","latitud":"-34.537294","longitud":"-58.476604","municipio_id":"BUE131","provincia_id":"AR-B","id_departamento":"1326","municipio":"Vicente López","provincia":"Buenos Aires","departamento":"Vicente Lopez"},{"id":"287","identificador":"BUE131-02","ubicacion":"Vicente Lopez - Alsina","latitud":"-34.523379","longitud":"-58.483890","municipio_id":"BUE131","provincia_id":"AR-B","id_departamento":"1326","municipio":"Vicente López","provincia":"Buenos Aires","departamento":"Vicente Lopez"},{"id":"282","identificador":"BUE131-03","ubicacion":"Vicente Lopez - Italia II","latitud":"-34.522442","longitud":"-58.484410","municipio_id":"BUE131","provincia_id":"AR-B","id_departamento":"1326","municipio":"Vicente López","provincia":"Buenos Aires","departamento":"Vicente Lopez"},{"id":"290","identificador":"BUE131-04","ubicacion":"Florida","latitud":"-34.538423","longitud":"-58.513497","municipio_id":"BUE131","provincia_id":"AR-B","id_departamento":"1326","municipio":"Vicente López","provincia":"Buenos Aires","departamento":"Vicente Lopez"},{"id":"274","identificador":"BUE131-05","ubicacion":"Vicente Lopez- Estacion Haedo","latitud":"-34.534858","longitud":"-58.477816","municipio_id":"BUE131","provincia_id":"AR-B","id_departamento":"1326","municipio":"Vicente López","provincia":"Buenos Aires","departamento":"Vicente Lopez"},{"id":"285","identificador":"BUE131-06","ubicacion":"Vicente Lopez - Vergara","latitud":"-34.531043","longitud":"-58.479725","municipio_id":"BUE131","provincia_id":"AR-B","id_departamento":"1326","municipio":"Vicente López","provincia":"Buenos Aires","departamento":"Vicente Lopez"},{"id":"410","identificador":"BUE131-07","ubicacion":"Estacion Gral las Heras","latitud":"-34.535823","longitud":"-58.477345","municipio_id":"BUE131","provincia_id":"AR-B","id_departamento":"1326","municipio":"Vicente López","provincia":"Buenos Aires","departamento":"Vicente Lopez"},{"id":"277","identificador":"BUE131-08","ubicacion":"Vicente Lopez - San Martin","latitud":"-34.530125","longitud":"-58.480228","municipio_id":"BUE131","provincia_id":"AR-B","id_departamento":"1326","municipio":"Vicente López","provincia":"Buenos Aires","departamento":"Vicente Lopez"},{"id":"280","identificador":"BUE131-09","ubicacion":"Vicente Lopez - Las Heras","latitud":"-34.520089","longitud":"-58.485620","municipio_id":"BUE131","provincia_id":"AR-B","id_departamento":"1326","municipio":"Vicente López","provincia":"Buenos Aires","departamento":"Vicente Lopez"},{"id":"288","identificador":"BUE131-10","ubicacion":"Vicente Lopez - Libertad","latitud":"-34.528077","longitud":"-58.481248","municipio_id":"BUE131","provincia_id":"AR-B","id_departamento":"1326","municipio":"Vicente López","provincia":"Buenos Aires","departamento":"Vicente Lopez"},{"id":"232","identificador":"BUE131-11","ubicacion":"Estación MalaVer- Vicente Lopez","latitud":"-34.525288","longitud":"-58.482847","municipio_id":"BUE131","provincia_id":"AR-B","id_departamento":"1326","municipio":"Vicente López","provincia":"Buenos Aires","departamento":"Vicente Lopez"},{"id":"283","identificador":"BUE131-12","ubicacion":"Vicente Lopez - Las Heras II","latitud":"-34.520089","longitud":"-58.485620","municipio_id":"BUE131","provincia_id":"AR-B","id_departamento":"1326","municipio":"Vicente López","provincia":"Buenos Aires","departamento":"Vicente Lopez"},{"id":"408","identificador":"BUE131-13","ubicacion":"Estacion Gral lavalle","latitud":"-34.519205","longitud":"-58.486151","municipio_id":"BUE131","provincia_id":"AR-B","id_departamento":"1326","municipio":"Vicente López","provincia":"Buenos Aires","departamento":"Vicente Lopez"},{"id":"275","identificador":"BUE131-14","ubicacion":"Vicente Lopez - Santa Rosa","latitud":"-34.534026","longitud":"-58.478260","municipio_id":"BUE131","provincia_id":"AR-B","id_departamento":"1326","municipio":"Vicente López","provincia":"Buenos Aires","departamento":"Vicente Lopez"},{"id":"278","identificador":"BUE131-15","ubicacion":"Vicente Lopez - Laprida","latitud":"-34.537992","longitud":"-58.476266","municipio_id":"BUE131","provincia_id":"AR-B","id_departamento":"1326","municipio":"Vicente López","provincia":"Buenos Aires","departamento":"Vicente Lopez"},{"id":"286","identificador":"BUE131-16","ubicacion":"Vicente Lopez - Roca","latitud":"-34.533054","longitud":"-58.478693","municipio_id":"BUE131","provincia_id":"AR-B","id_departamento":"1326","municipio":"Vicente López","provincia":"Buenos Aires","departamento":"Vicente Lopez"},{"id":"281","identificador":"BUE131-17","ubicacion":"Vicente Lopez - Italia","latitud":"-34.526132","longitud":"-58.482418","municipio_id":"BUE131","provincia_id":"AR-B","id_departamento":"1326","municipio":"Vicente López","provincia":"Buenos Aires","departamento":"Vicente Lopez"},{"id":"289","identificador":"BUE131-18","ubicacion":"Vicente Lopez - Urquiza","latitud":"-34.532058","longitud":"-58.479170","municipio_id":"BUE131","provincia_id":"AR-B","id_departamento":"1326","municipio":"Vicente López","provincia":"Buenos Aires","departamento":"Vicente Lopez"},{"id":"233","identificador":"BUE131-19","ubicacion":"Estación Yrigoyen- Vicente Lopez","latitud":"-34.527202","longitud":"-58.481790","municipio_id":"BUE131","provincia_id":"AR-B","id_departamento":"1326","municipio":"Vicente López","provincia":"Buenos Aires","departamento":"Vicente Lopez"},{"id":"284","identificador":"BUE131-20","ubicacion":"Vicente Lopez - Maipu 455 II","latitud":"-34.524307","longitud":"-58.483402","municipio_id":"BUE131","provincia_id":"AR-B","id_departamento":"1326","municipio":"Vicente López","provincia":"Buenos Aires","departamento":"Vicente Lopez"},{"id":"409","identificador":"BUE131-21","ubicacion":"Estacion A. del Valle","latitud":"-34.521502","longitud":"-58.484888","municipio_id":"BUE131","provincia_id":"AR-B","id_departamento":"1326","municipio":"Vicente López","provincia":"Buenos Aires","departamento":"Vicente Lopez"},{"id":"276","identificador":"BUE131-22","ubicacion":"Vicente Lopez - Arenales","latitud":"-34.529142","longitud":"-58.480733","municipio_id":"BUE131","provincia_id":"AR-B","id_departamento":"1326","municipio":"Vicente López","provincia":"Buenos Aires","departamento":"Vicente Lopez"},{"id":"1091","identificador":"BUE043-01","ubicacion":null,"latitud":"-36.022218","longitud":"-60.014617","municipio_id":"BUE043","provincia_id":"AR-B","id_departamento":"1237","municipio":"General Alvear","provincia":"Buenos Aires","departamento":"General Alvear"},{"id":"679","identificador":"CHU046-01","ubicacion":"salon de usos multiples","latitud":"-44.687556","longitud":"-70.853694","municipio_id":"CHU046","provincia_id":"AR-U","id_departamento":"1367","municipio":"Aldea Apeleg","provincia":"Chubut","departamento":"Rio Senguer"},{"id":"650","identificador":"BUE099-01","ubicacion":null,"latitud":"-37.549549","longitud":"-62.774955","municipio_id":"BUE099","provincia_id":"AR-B","id_departamento":"1294","municipio":"Puán","provincia":"Buenos Aires","departamento":"Puan"},{"id":"649","identificador":"BUE099-02","ubicacion":"Punto Digital","latitud":"-37.543239","longitud":"-62.767778","municipio_id":"BUE099","provincia_id":"AR-B","id_departamento":"1294","municipio":"Puán","provincia":"Buenos Aires","departamento":"Puan"},{"id":"1276","identificador":"SFE038-01","ubicacion":null,"latitud":"0.000000","longitud":"0.000000","municipio_id":"SFE038","provincia_id":"AR-S","id_departamento":"1688","municipio":"Cacique Ariacaiquín","provincia":"Santa Fe","departamento":"San Javier"},{"id":"1083","identificador":"CAT009-01","ubicacion":null,"latitud":"-27.692359","longitud":"-67.619842","municipio_id":"CAT009","provincia_id":"AR-K","id_departamento":"1337","municipio":"Fiambalá","provincia":"Catamarca","departamento":"Tinogasta"},{"id":"950","identificador":"BUE067-01","ubicacion":"NIDO Lanus","latitud":"-34.729264","longitud":"-58.350367","municipio_id":"BUE067","provincia_id":"AR-B","id_departamento":"1261","municipio":"Lanús","provincia":"Buenos Aires","departamento":"Lanus"},{"id":"653","identificador":"BUE067-02","ubicacion":"FPIII","latitud":"-34.715680","longitud":"-58.417440","municipio_id":"BUE067","provincia_id":"AR-B","id_departamento":"1261","municipio":"Lanús","provincia":"Buenos Aires","departamento":"Lanus"},{"id":"951","identificador":"BUE067-03","ubicacion":"Punto Digital Remedios de Escalada","latitud":"-34.715637","longitud":"-58.417224","municipio_id":"BUE067","provincia_id":"AR-B","id_departamento":"1261","municipio":"Lanús","provincia":"Buenos Aires","departamento":"Lanus"},{"id":"246","identificador":"BUE067-04","ubicacion":"Fundacion Pupi","latitud":"-34.715680","longitud":"-58.417448","municipio_id":"BUE067","provincia_id":"AR-B","id_departamento":"1261","municipio":"Lanús","provincia":"Buenos Aires","departamento":"Lanus"},{"id":"949","identificador":"BUE067-05","ubicacion":"Punto digital","latitud":"-34.715458","longitud":"-58.370417","municipio_id":"BUE067","provincia_id":"AR-B","id_departamento":"1261","municipio":"Lanús","provincia":"Buenos Aires","departamento":"Lanus"},{"id":"652","identificador":"BUE067-06","ubicacion":"FPII","latitud":"-34.715680","longitud":"-58.417461","municipio_id":"BUE067","provincia_id":"AR-B","id_departamento":"1261","municipio":"Lanús","provincia":"Buenos Aires","departamento":"Lanus"},{"id":"54","identificador":"BUE067-07","ubicacion":"Plaza Tacuari","latitud":"-34.696416","longitud":"-58.370417","municipio_id":"BUE067","provincia_id":"AR-B","id_departamento":"1261","municipio":"Lanús","provincia":"Buenos Aires","departamento":"Lanus"},{"id":"52","identificador":"BUE067-08","ubicacion":"Cancha de Fútbol Barrial","latitud":"-34.722333","longitud":"-58.387694","municipio_id":"BUE067","provincia_id":"AR-B","id_departamento":"1261","municipio":"Lanús","provincia":"Buenos Aires","departamento":"Lanus"},{"id":"55","identificador":"BUE067-09","ubicacion":"Plaza Las Colinas","latitud":"-34.723590","longitud":"-58.368520","municipio_id":"BUE067","provincia_id":"AR-B","id_departamento":"1261","municipio":"Lanús","provincia":"Buenos Aires","departamento":"Lanus"},{"id":"51","identificador":"BUE067-10","ubicacion":"Punto Digital","latitud":"-34.715192","longitud":"-58.387366","municipio_id":"BUE067","provincia_id":"AR-B","id_departamento":"1261","municipio":"Lanús","provincia":"Buenos Aires","departamento":"Lanus"},{"id":"53","identificador":"BUE067-11","ubicacion":"Pza.Sarmiento","latitud":"-34.713139","longitud":"-58.382444","municipio_id":"BUE067","provincia_id":"AR-B","id_departamento":"1261","municipio":"Lanús","provincia":"Buenos Aires","departamento":"Lanus"},{"id":"56","identificador":"BUE067-12","ubicacion":"Plaza San Martin","latitud":"-34.689929","longitud":"-58.370417","municipio_id":"BUE067","provincia_id":"AR-B","id_departamento":"1261","municipio":"Lanús","provincia":"Buenos Aires","departamento":"Lanus"},{"id":"57","identificador":"BUE067-13","ubicacion":"Pza.La Torre","latitud":"-34.722250","longitud":"-58.387771","municipio_id":"BUE067","provincia_id":"AR-B","id_departamento":"1261","municipio":"Lanús","provincia":"Buenos Aires","departamento":"Lanus"},{"id":"298","identificador":"COR007-01","ubicacion":"Punto Digital","latitud":"-28.536325","longitud":"-57.172278","municipio_id":"COR007","provincia_id":"AR-W","id_departamento":"1415","municipio":"Colonia Carlos Pellegrini","provincia":"Corrientes","departamento":"San Martin"},{"id":"585","identificador":"COR007-02","ubicacion":"Municipalidad","latitud":"-28.536325","longitud":"-57.172278","municipio_id":"COR007","provincia_id":"AR-W","id_departamento":"1415","municipio":"Colonia Carlos Pellegrini","provincia":"Corrientes","departamento":"San Martin"},{"id":"586","identificador":"COR007-03","ubicacion":null,"latitud":"0.000000","longitud":"0.000000","municipio_id":"COR007","provincia_id":"AR-W","id_departamento":"1415","municipio":"Colonia Carlos Pellegrini","provincia":"Corrientes","departamento":"San Martin"},{"id":"1078","identificador":"CAT031-01","ubicacion":null,"latitud":"-28.402178","longitud":"-65.101814","municipio_id":"CAT031","provincia_id":"AR-K","id_departamento":"1335","municipio":"Tapso","provincia":"Catamarca","departamento":"El Alto"},{"id":"983","identificador":"BUE064-01","ubicacion":"Mar deTuyu","latitud":"-36.577611","longitud":"-56.694083","municipio_id":"BUE064","provincia_id":"AR-B","id_departamento":"1258","municipio":"La Costa","provincia":"Buenos Aires","departamento":"La Costa"},{"id":"984","identificador":"BUE064-02","ubicacion":"San Clemente deTuyu","latitud":"-36.577535","longitud":"-56.693884","municipio_id":"BUE064","provincia_id":"AR-B","id_departamento":"1258","municipio":"La Costa","provincia":"Buenos Aires","departamento":"La Costa"},{"id":"969","identificador":"BUE064-03","ubicacion":"Plaza Santa Teresita","latitud":"-36.532252","longitud":"-56.699393","municipio_id":"BUE064","provincia_id":"AR-B","id_departamento":"1258","municipio":"La Costa","provincia":"Buenos Aires","departamento":"La Costa"},{"id":"985","identificador":"BUE064-04","ubicacion":"Las Toninas","latitud":"-36.488222","longitud":"-56.705167","municipio_id":"BUE064","provincia_id":"AR-B","id_departamento":"1258","municipio":"La Costa","provincia":"Buenos Aires","departamento":"La Costa"},{"id":"31","identificador":"BUE064-05","ubicacion":"Costanera y 3","latitud":"-36.609167","longitud":"-56.685722","municipio_id":"BUE064","provincia_id":"AR-B","id_departamento":"1258","municipio":"La Costa","provincia":"Buenos Aires","departamento":"La Costa"},{"id":"35","identificador":"BUE064-06","ubicacion":"Santa Teresita","latitud":"-36.543518","longitud":"-56.688797","municipio_id":"BUE064","provincia_id":"AR-B","id_departamento":"1258","municipio":"La Costa","provincia":"Buenos Aires","departamento":"La Costa"},{"id":"1093","identificador":"SFE243-01","ubicacion":null,"latitud":"-31.211944","longitud":"-61.613889","municipio_id":"SFE243","provincia_id":"AR-S","id_departamento":"1689","municipio":"Presidente Roca","provincia":"Santa Fe","departamento":"Castellanos"},{"id":"644","identificador":"BUE001-01","ubicacion":"Plaza Levalle","latitud":"-37.179520","longitud":"-62.760090","municipio_id":"BUE001","provincia_id":"AR-B","id_departamento":"1195","municipio":"Adolfo Alsina","provincia":"Buenos Aires","departamento":"Adolfo Alsina"},{"id":"643","identificador":"BUE001-02","ubicacion":"Barrio Arturo illia","latitud":"-37.171310","longitud":"-62.724830","municipio_id":"BUE001","provincia_id":"AR-B","id_departamento":"1195","municipio":"Adolfo Alsina","provincia":"Buenos Aires","departamento":"Adolfo Alsina"},{"id":"1065","identificador":"BUE045-01","ubicacion":null,"latitud":"-35.770085","longitud":"-58.496426","municipio_id":"BUE045","provincia_id":"AR-B","id_departamento":"1239","municipio":"General Belgrano","provincia":"Buenos Aires","departamento":"General Belgrano"},{"id":"534","identificador":"BUE045-02","ubicacion":"Plaza Manuel Belgrano","latitud":"-35.765778","longitud":"-58.497333","municipio_id":"BUE045","provincia_id":"AR-B","id_departamento":"1239","municipio":"General Belgrano","provincia":"Buenos Aires","departamento":"General Belgrano"},{"id":"947","identificador":"BUE045-03","ubicacion":"PD General Belgrano","latitud":"-35.768484","longitud":"-58.495901","municipio_id":"BUE045","provincia_id":"AR-B","id_departamento":"1239","municipio":"General Belgrano","provincia":"Buenos Aires","departamento":"General Belgrano"},{"id":"1160","identificador":"BUE071-01","ubicacion":null,"latitud":"0.000000","longitud":"0.000000","municipio_id":"BUE071","provincia_id":"AR-B","id_departamento":"1266","municipio":"Lincoln","provincia":"Buenos Aires","departamento":"Lincoln"},{"id":"1077","identificador":"SAL054-01","ubicacion":null,"latitud":"-25.305546","longitud":"-66.256975","municipio_id":"SAL054","provincia_id":"AR-A","id_departamento":"1679","municipio":"Seclantás","provincia":"Salta","departamento":"Molinos"},{"id":"1163","identificador":"COR012-01","ubicacion":null,"latitud":"0.000000","longitud":"0.000000","municipio_id":"COR012","provincia_id":"AR-W","id_departamento":"1419","municipio":"Corrientes","provincia":"Corrientes","departamento":"Capital"},{"id":"1227","identificador":"COR012-02","ubicacion":null,"latitud":"0.000000","longitud":"0.000000","municipio_id":"COR012","provincia_id":"AR-W","id_departamento":"1419","municipio":"Corrientes","provincia":"Corrientes","departamento":"Capital"},{"id":"1164","identificador":"COR012-03","ubicacion":null,"latitud":"0.000000","longitud":"0.000000","municipio_id":"COR012","provincia_id":"AR-W","id_departamento":"1419","municipio":"Corrientes","provincia":"Corrientes","departamento":"Capital"},{"id":"1165","identificador":"COR012-04","ubicacion":null,"latitud":"0.000000","longitud":"0.000000","municipio_id":"COR012","provincia_id":"AR-W","id_departamento":"1419","municipio":"Corrientes","provincia":"Corrientes","departamento":"Capital"},{"id":"222","identificador":"COR012-05","ubicacion":"Centro Comunitario Irupe","latitud":"-27.495926","longitud":"-58.806732","municipio_id":"COR012","provincia_id":"AR-W","id_departamento":"1419","municipio":"Corrientes","provincia":"Corrientes","departamento":"Capital"},{"id":"225","identificador":"COR012-06","ubicacion":"Guemes y Lamadrid","latitud":"-27.485643","longitud":"-58.808145","municipio_id":"COR012","provincia_id":"AR-W","id_departamento":"1419","municipio":"Corrientes","provincia":"Corrientes","departamento":"Capital"},{"id":"221","identificador":"COR012-07","ubicacion":"Sueci y Frondizi","latitud":"-27.503645","longitud":"-58.797728","municipio_id":"COR012","provincia_id":"AR-W","id_departamento":"1419","municipio":"Corrientes","provincia":"Corrientes","departamento":"Capital"},{"id":"224","identificador":"COR012-08","ubicacion":"Plaza Sgto Cabral","latitud":"-27.468591","longitud":"-58.831493","municipio_id":"COR012","provincia_id":"AR-W","id_departamento":"1419","municipio":"Corrientes","provincia":"Corrientes","departamento":"Capital"},{"id":"223","identificador":"COR012-09","ubicacion":"Plaza Vera","latitud":"-27.467323","longitud":"-58.837375","municipio_id":"COR012","provincia_id":"AR-W","id_departamento":"1419","municipio":"Corrientes","provincia":"Corrientes","departamento":"Capital"},{"id":"220","identificador":"COR012-10","ubicacion":"Plaza 3 de Abril","latitud":"-27.466630","longitud":"-58.822472","municipio_id":"COR012","provincia_id":"AR-W","id_departamento":"1419","municipio":"Corrientes","provincia":"Corrientes","departamento":"Capital"},{"id":"881","identificador":"BUE089-01","ubicacion":null,"latitud":"-35.607681","longitud":"-60.917092","municipio_id":"BUE089","provincia_id":"AR-B","id_departamento":"1284","municipio":"Nueve de Julio","provincia":"Buenos Aires","departamento":"Nueve de Julio"},{"id":"357","identificador":"BUE089-02","ubicacion":"Plaza Municipio","latitud":"-35.444056","longitud":"-60.884778","municipio_id":"BUE089","provincia_id":"AR-B","id_departamento":"1284","municipio":"Nueve de Julio","provincia":"Buenos Aires","departamento":"Nueve de Julio"},{"id":"418","identificador":"BUE089-03","ubicacion":"Plaza","latitud":"-35.449028","longitud":"-60.897917","municipio_id":"BUE089","provincia_id":"AR-B","id_departamento":"1284","municipio":"Nueve de Julio","provincia":"Buenos Aires","departamento":"Nueve de Julio"},{"id":"882","identificador":"BUE089-04","ubicacion":null,"latitud":"-35.237794","longitud":"-60.824925","municipio_id":"BUE089","provincia_id":"AR-B","id_departamento":"1284","municipio":"Nueve de Julio","provincia":"Buenos Aires","departamento":"Nueve de Julio"},{"id":"416","identificador":"BUE089-05","ubicacion":"Plaza Esc Comer","latitud":"-35.450667","longitud":"-60.882917","municipio_id":"BUE089","provincia_id":"AR-B","id_departamento":"1284","municipio":"Nueve de Julio","provincia":"Buenos Aires","departamento":"Nueve de Julio"},{"id":"419","identificador":"BUE089-06","ubicacion":"Plaza España","latitud":"-35.437917","longitud":"-60.881611","municipio_id":"BUE089","provincia_id":"AR-B","id_departamento":"1284","municipio":"Nueve de Julio","provincia":"Buenos Aires","departamento":"Nueve de Julio"},{"id":"883","identificador":"BUE089-07","ubicacion":null,"latitud":"-35.553842","longitud":"-60.560544","municipio_id":"BUE089","provincia_id":"AR-B","id_departamento":"1284","municipio":"Nueve de Julio","provincia":"Buenos Aires","departamento":"Nueve de Julio"},{"id":"417","identificador":"BUE089-08","ubicacion":"Parque GraSM.","latitud":"-35.438139","longitud":"-60.878167","municipio_id":"BUE089","provincia_id":"AR-B","id_departamento":"1284","municipio":"Nueve de Julio","provincia":"Buenos Aires","departamento":"Nueve de Julio"},{"id":"1299","identificador":"TUC109-01","ubicacion":null,"latitud":"0.000000","longitud":"0.000000","municipio_id":"TUC109","provincia_id":"AR-T","id_departamento":"1643","municipio":"Villa Quinteros","provincia":"Tucumán","departamento":"Monteros"},{"id":"310","identificador":"CHA001-01","ubicacion":null,"latitud":"0.000000","longitud":"0.000000","municipio_id":"CHA001","provincia_id":"AR-H","id_departamento":"1346","municipio":"Aviá Teraí","provincia":"Chaco","departamento":"Independencia"},{"id":"250","identificador":"CAB000-01","ubicacion":"Accion Catolica","latitud":"-34.608631","longitud":"-58.375373","municipio_id":"CAB000","provincia_id":"AR-C","id_departamento":null,"municipio":"Ciudad Autónoma de Buenos Aires","provincia":"Ciudad Autónoma de Buenos Aires","departamento":null},{"id":"877","identificador":"CAB000-02","ubicacion":"Terminal de Cruceros 2","latitud":"-34.583531","longitud":"-58.369242","municipio_id":"CAB000","provincia_id":"AR-C","id_departamento":null,"municipio":"Ciudad Autónoma de Buenos Aires","provincia":"Ciudad Autónoma de Buenos Aires","departamento":null},{"id":"872","identificador":"CAB000-03","ubicacion":"Cuartino Puerto","latitud":"-34.591963","longitud":"-58.370257","municipio_id":"CAB000","provincia_id":"AR-C","id_departamento":null,"municipio":"Ciudad Autónoma de Buenos Aires","provincia":"Ciudad Autónoma de Buenos Aires","departamento":null},{"id":"875","identificador":"CAB000-04","ubicacion":"Cen.Ca.Por","latitud":"-34.590891","longitud":"-58.370417","municipio_id":"CAB000","provincia_id":"AR-C","id_departamento":null,"municipio":"Ciudad Autónoma de Buenos Aires","provincia":"Ciudad Autónoma de Buenos Aires","departamento":null},{"id":"878","identificador":"CAB000-05","ubicacion":"Terminal de Cruceros 3","latitud":"-34.583531","longitud":"-58.369242","municipio_id":"CAB000","provincia_id":"AR-C","id_departamento":null,"municipio":"Ciudad Autónoma de Buenos Aires","provincia":"Ciudad Autónoma de Buenos Aires","departamento":null},{"id":"251","identificador":"CAB000-06","ubicacion":"Floresta PD","latitud":"-34.636508","longitud":"-58.486977","municipio_id":"CAB000","provincia_id":"AR-C","id_departamento":null,"municipio":"Ciudad Autónoma de Buenos Aires","provincia":"Ciudad Autónoma de Buenos Aires","departamento":null},{"id":"873","identificador":"CAB000-07","ubicacion":"Empalme Norte","latitud":"-34.583945","longitud":"-58.368481","municipio_id":"CAB000","provincia_id":"AR-C","id_departamento":null,"municipio":"Ciudad Autónoma de Buenos Aires","provincia":"Ciudad Autónoma de Buenos Aires","departamento":null},{"id":"249","identificador":"CAB000-08","ubicacion":"Ex Esma","latitud":"-34.538301","longitud":"-58.463309","municipio_id":"CAB000","provincia_id":"AR-C","id_departamento":null,"municipio":"Ciudad Autónoma de Buenos Aires","provincia":"Ciudad Autónoma de Buenos Aires","departamento":null},{"id":"876","identificador":"CAB000-09","ubicacion":"Terminal de Cruceros","latitud":"-34.583531","longitud":"-58.369242","municipio_id":"CAB000","provincia_id":"AR-C","id_departamento":null,"municipio":"Ciudad Autónoma de Buenos Aires","provincia":"Ciudad Autónoma de Buenos Aires","departamento":null},{"id":"879","identificador":"CAB000-10","ubicacion":"Terminal de Cruceros 4","latitud":"-34.583531","longitud":"-58.369242","municipio_id":"CAB000","provincia_id":"AR-C","id_departamento":null,"municipio":"Ciudad Autónoma de Buenos Aires","provincia":"Ciudad Autónoma de Buenos Aires","departamento":null},{"id":"871","identificador":"CAB000-11","ubicacion":"Dir.Puertos","latitud":"-34.597774","longitud":"-58.367024","municipio_id":"CAB000","provincia_id":"AR-C","id_departamento":null,"municipio":"Ciudad Autónoma de Buenos Aires","provincia":"Ciudad Autónoma de Buenos Aires","departamento":null},{"id":"874","identificador":"CAB000-12","ubicacion":"Food Trucks Puerto BSAS","latitud":"-34.593885","longitud":"-58.369249","municipio_id":"CAB000","provincia_id":"AR-C","id_departamento":null,"municipio":"Ciudad Autónoma de Buenos Aires","provincia":"Ciudad Autónoma de Buenos Aires","departamento":null},{"id":"79","identificador":"CAB000-13","ubicacion":"Devoto Casa del Futuro","latitud":"-34.603589","longitud":"-58.508086","municipio_id":"CAB000","provincia_id":"AR-C","id_departamento":null,"municipio":"Ciudad Autónoma de Buenos Aires","provincia":"Ciudad Autónoma de Buenos Aires","departamento":null},{"id":"80","identificador":"CAB000-14","ubicacion":"Casa de la Cultura","latitud":"-34.651566","longitud":"-58.397503","municipio_id":"CAB000","provincia_id":"AR-C","id_departamento":null,"municipio":"Ciudad Autónoma de Buenos Aires","provincia":"Ciudad Autónoma de Buenos Aires","departamento":null},{"id":"78","identificador":"CAB000-15","ubicacion":"Piletones II","latitud":"-34.659944","longitud":"-58.452694","municipio_id":"CAB000","provincia_id":"AR-C","id_departamento":null,"municipio":"Ciudad Autónoma de Buenos Aires","provincia":"Ciudad Autónoma de Buenos Aires","departamento":null},{"id":"77","identificador":"CAB000-16","ubicacion":"Piletones I","latitud":"-34.659972","longitud":"-58.452694","municipio_id":"CAB000","provincia_id":"AR-C","id_departamento":null,"municipio":"Ciudad Autónoma de Buenos Aires","provincia":"Ciudad Autónoma de Buenos Aires","departamento":null},{"id":"656","identificador":"CHU038-01","ubicacion":"oficina de informacion turistica","latitud":"-44.179556","longitud":"-71.367583","municipio_id":"CHU038","provincia_id":"AR-U","id_departamento":"1377","municipio":"Río Pico","provincia":"Chubut","departamento":"Tehuelches"},{"id":"1290","identificador":"SFE115-01","ubicacion":null,"latitud":"0.000000","longitud":"0.000000","municipio_id":"SFE115","provincia_id":"AR-S","id_departamento":"1701","municipio":"Esteban Rams","provincia":"Santa Fe","departamento":"Nueve de Julio"},{"id":"1220","identificador":"CBA091-01","ubicacion":null,"latitud":"0.000000","longitud":"0.000000","municipio_id":"CBA091","provincia_id":"AR-X","id_departamento":"1387","municipio":"Colonia San Pedro","provincia":"Córdoba","departamento":"San Justo"},{"id":"360","identificador":"LAP065-01","ubicacion":"Santa Rosa - Plaza San Martin","latitud":"-36.620590","longitud":"-64.290393","municipio_id":"LAP065","provincia_id":"AR-L","id_departamento":"1480","municipio":"Santa Rosa","provincia":"La Pampa","departamento":"Capital"},{"id":"579","identificador":"LAP065-02","ubicacion":"SENASA Santa Rosa","latitud":"-37.000000","longitud":"-64.000000","municipio_id":"LAP065","provincia_id":"AR-L","id_departamento":"1480","municipio":"Santa Rosa","provincia":"La Pampa","departamento":"Capital"},{"id":"230","identificador":"NEU031-01","ubicacion":"Patinodromo","latitud":"-38.955486","longitud":"-68.237063","municipio_id":"NEU031","provincia_id":"AR-Q","id_departamento":"1556","municipio":"Plottier","provincia":"Neuquén","departamento":"Confluencia"},{"id":"330","identificador":"COR030-01","ubicacion":null,"latitud":"-29.176248","longitud":"-56.641592","municipio_id":"COR030","provincia_id":"AR-W","id_departamento":"1415","municipio":"La Cruz","provincia":"Corrientes","departamento":"San Martin"},{"id":"610","identificador":"CBA087-01","ubicacion":null,"latitud":"-31.245556","longitud":"-62.925583","municipio_id":"CBA087","provincia_id":"AR-X","id_departamento":"1387","municipio":"Colonia las Pichanas","provincia":"Córdoba","departamento":"San Justo"},{"id":"1098","identificador":"BUE016-01","ubicacion":null,"latitud":"0.000000","longitud":"0.000000","municipio_id":"BUE016","provincia_id":"AR-B","id_departamento":"1210","municipio":"Bragado","provincia":"Buenos Aires","departamento":"Bragado"},{"id":"1064","identificador":"BUE016-02","ubicacion":null,"latitud":"-34.800840","longitud":"-60.661514","municipio_id":"BUE016","provincia_id":"AR-B","id_departamento":"1210","municipio":"Bragado","provincia":"Buenos Aires","departamento":"Bragado"},{"id":"27","identificador":"BUE016-03","ubicacion":"Pza Eva Peron","latitud":"-35.119639","longitud":"-60.479278","municipio_id":"BUE016","provincia_id":"AR-B","id_departamento":"1210","municipio":"Bragado","provincia":"Buenos Aires","departamento":"Bragado"},{"id":"28","identificador":"BUE016-04","ubicacion":"Pza San Martin","latitud":"-35.112694","longitud":"-60.489306","municipio_id":"BUE016","provincia_id":"AR-B","id_departamento":"1210","municipio":"Bragado","provincia":"Buenos Aires","departamento":"Bragado"},{"id":"229","identificador":"BUE014-01","ubicacion":"Patio Civico","latitud":"-34.868310","longitud":"-57.883916","municipio_id":"BUE014","provincia_id":"AR-B","id_departamento":"1208","municipio":"Berisso","provincia":"Buenos Aires","departamento":"Berisso"},{"id":"1","identificador":"BUE014-02","ubicacion":"Plaza 17 de Octubre","latitud":"-34.880694","longitud":"-57.869028","municipio_id":"BUE014","provincia_id":"AR-B","id_departamento":"1208","municipio":"Berisso","provincia":"Buenos Aires","departamento":"Berisso"},{"id":"634","identificador":"BUE088-01","ubicacion":"Costa Bonita","latitud":"-38.561178","longitud":"-58.628331","municipio_id":"BUE088","provincia_id":"AR-B","id_departamento":"1283","municipio":"Necochea","provincia":"Buenos Aires","departamento":"Necochea"},{"id":"698","identificador":"BUE088-02","ubicacion":null,"latitud":"-38.459861","longitud":"-58.761311","municipio_id":"BUE088","provincia_id":"AR-B","id_departamento":"1283","municipio":"Necochea","provincia":"Buenos Aires","departamento":"Necochea"},{"id":"411","identificador":"BUE076-01","ubicacion":"Magdalena - Plaza Villa Garibaldi (Brenan 1450)","latitud":"-35.080558","longitud":"-57.517227","municipio_id":"BUE076","provincia_id":"AR-B","id_departamento":"1271","municipio":"Magdalena","provincia":"Buenos Aires","departamento":"Magdalena"},{"id":"412","identificador":"BUE076-02","ubicacion":"Magdalena - Plaza San Martín (esq. Rivadavia e Irigoyen)","latitud":"-35.080558","longitud":"-57.517227","municipio_id":"BUE076","provincia_id":"AR-B","id_departamento":"1271","municipio":"Magdalena","provincia":"Buenos Aires","departamento":"Magdalena"},{"id":"952","identificador":"BUE076-03","ubicacion":"PD Magdalena","latitud":"-35.080095","longitud":"-57.517227","municipio_id":"BUE076","provincia_id":"AR-B","id_departamento":"1271","municipio":"Magdalena","provincia":"Buenos Aires","departamento":"Magdalena"},{"id":"962","identificador":"SCR018-01","ubicacion":"Centro de Informacion Turistica","latitud":"-49.333638","longitud":"-72.882993","municipio_id":"SCR018","provincia_id":"AR-Z","id_departamento":"1609","municipio":"El Chaltén","provincia":"Santa Cruz","departamento":"Lago Argentino"},{"id":"1295","identificador":"SCR018-02","ubicacion":null,"latitud":"0.000000","longitud":"0.000000","municipio_id":"SCR018","provincia_id":"AR-Z","id_departamento":"1609","municipio":"El Chaltén","provincia":"Santa Cruz","departamento":"Lago Argentino"},{"id":"571","identificador":"TDF003-01","ubicacion":"Ushuaia - Puerto / Sector Quiebre out","latitud":"-54.808713","longitud":"-68.304144","municipio_id":"TDF003","provincia_id":"AR-V","id_departamento":"1642","municipio":"Ushuaia","provincia":"Tierra del Fuego","departamento":"Ushuaia"},{"id":"574","identificador":"TDF003-02","ubicacion":"Ushuaia - Puerto / muelle columna 4","latitud":"-54.808714","longitud":"-68.304145","municipio_id":"TDF003","provincia_id":"AR-V","id_departamento":"1642","municipio":"Ushuaia","provincia":"Tierra del Fuego","departamento":"Ushuaia"},{"id":"570","identificador":"TDF003-03","ubicacion":"Ushuaia - Puerto / Sector Quiebre in","latitud":"-54.808712","longitud":"-68.304143","municipio_id":"TDF003","provincia_id":"AR-V","id_departamento":"1642","municipio":"Ushuaia","provincia":"Tierra del Fuego","departamento":"Ushuaia"},{"id":"572","identificador":"TDF003-04","ubicacion":"Ushuaia - Puerto / muelle columna 2","latitud":"-54.808714","longitud":"-68.304145","municipio_id":"TDF003","provincia_id":"AR-V","id_departamento":"1642","municipio":"Ushuaia","provincia":"Tierra del Fuego","departamento":"Ushuaia"},{"id":"575","identificador":"TDF003-05","ubicacion":"Puerto Almanza VSAT Arsat","latitud":"-54.869533","longitud":"-67.562734","municipio_id":"TDF003","provincia_id":"AR-V","id_departamento":"1642","municipio":"Ushuaia","provincia":"Tierra del Fuego","departamento":"Ushuaia"},{"id":"565","identificador":"TDF003-06","ubicacion":"Direccion Provincial puertos","latitud":"-54.808713","longitud":"-68.304144","municipio_id":"TDF003","provincia_id":"AR-V","id_departamento":"1642","municipio":"Ushuaia","provincia":"Tierra del Fuego","departamento":"Ushuaia"},{"id":"573","identificador":"TDF003-07","ubicacion":"Ushuaia - Puerto / muelle columna 5","latitud":"-54.808714","longitud":"-68.304145","municipio_id":"TDF003","provincia_id":"AR-V","id_departamento":"1642","municipio":"Ushuaia","provincia":"Tierra del Fuego","departamento":"Ushuaia"},{"id":"914","identificador":"TDF003-08","ubicacion":"Punto Digital Ushuaia","latitud":"-54.822721","longitud":"-68.350744","municipio_id":"TDF003","provincia_id":"AR-V","id_departamento":"1642","municipio":"Ushuaia","provincia":"Tierra del Fuego","departamento":"Ushuaia"},{"id":"568","identificador":"TDF003-09","ubicacion":"Ushuaia - Puerto / Sector Catamaranes","latitud":"-54.808713","longitud":"-68.304144","municipio_id":"TDF003","provincia_id":"AR-V","id_departamento":"1642","municipio":"Ushuaia","provincia":"Tierra del Fuego","departamento":"Ushuaia"},{"id":"601","identificador":"COR045-01","ubicacion":"Perrugorria - Curuzu Cuatia Municipalidad","latitud":"-29.340613","longitud":"-58.607324","municipio_id":"COR045","provincia_id":"AR-W","id_departamento":"1421","municipio":"Perugorría","provincia":"Corrientes","departamento":"Curuzu Cuatia"},{"id":"567","identificador":"CHU005-01","ubicacion":"Camarones VSAT","latitud":"-44.795297","longitud":"-65.710900","municipio_id":"CHU005","provincia_id":"AR-U","id_departamento":"1370","municipio":"Camarones","provincia":"Chubut","departamento":"Florentino Ameghino"},{"id":"1059","identificador":"BUE042-01","ubicacion":null,"latitud":"0.000000","longitud":"0.000000","municipio_id":"BUE042","provincia_id":"AR-B","id_departamento":"1236","municipio":"General Alvarado","provincia":"Buenos Aires","departamento":"General Alvarado"},{"id":"1043","identificador":"SFE199-01","ubicacion":null,"latitud":"0.000000","longitud":"0.000000","municipio_id":"SFE199","provincia_id":"AR-S","id_departamento":"1695","municipio":"Los Laureles","provincia":"Santa Fe","departamento":"General Obligado"},{"id":"1134","identificador":"RNO037-01","ubicacion":null,"latitud":"0.000000","longitud":"0.000000","municipio_id":"RNO037","provincia_id":"AR-R","id_departamento":"1573","municipio":"Viedma","provincia":"Río Negro","departamento":"Adolfo Alsina"},{"id":"532","identificador":"RNO037-02","ubicacion":"Viedma - Centro Cultural","latitud":"-40.815312","longitud":"-62.985135","municipio_id":"RNO037","provincia_id":"AR-R","id_departamento":"1573","municipio":"Viedma","provincia":"Río Negro","departamento":"Adolfo Alsina"},{"id":"1070","identificador":"RNO037-03","ubicacion":null,"latitud":"-41.012908","longitud":"-64.163546","municipio_id":"RNO037","provincia_id":"AR-R","id_departamento":"1573","municipio":"Viedma","provincia":"Río Negro","departamento":"Adolfo Alsina"},{"id":"533","identificador":"RNO037-04","ubicacion":"Viedma - Parque de Juegos","latitud":"-40.805235","longitud":"-62.988920","municipio_id":"RNO037","provincia_id":"AR-R","id_departamento":"1573","municipio":"Viedma","provincia":"Río Negro","departamento":"Adolfo Alsina"},{"id":"1133","identificador":"RNO037-05","ubicacion":null,"latitud":"0.000000","longitud":"0.000000","municipio_id":"RNO037","provincia_id":"AR-R","id_departamento":"1573","municipio":"Viedma","provincia":"Río Negro","departamento":"Adolfo Alsina"},{"id":"269","identificador":"RNO037-06","ubicacion":"PD Viedma","latitud":"-40.816924","longitud":"-63.004267","municipio_id":"RNO037","provincia_id":"AR-R","id_departamento":"1573","municipio":"Viedma","provincia":"Río Negro","departamento":"Adolfo Alsina"},{"id":"907","identificador":"RNO037-07","ubicacion":null,"latitud":"-41.044083","longitud":"-62.824194","municipio_id":"RNO037","provincia_id":"AR-R","id_departamento":"1573","municipio":"Viedma","provincia":"Río Negro","departamento":"Adolfo Alsina"},{"id":"715","identificador":"JUJ001-01","ubicacion":"Municipalidad","latitud":"-23.342417","longitud":"-66.090194","municipio_id":"JUJ001","provincia_id":"AR-Y","id_departamento":"1459","municipio":"Abdón Castro Tolay","provincia":"Jujuy","departamento":"Cochinoca"},{"id":"1256","identificador":"SLU019-01","ubicacion":null,"latitud":"0.000000","longitud":"0.000000","municipio_id":"SLU019","provincia_id":"AR-D","id_departamento":"1599","municipio":"Fortuna","provincia":"San Luis","departamento":"Gobernador Dupuy"},{"id":"1314","identificador":"SLU019-02","ubicacion":null,"latitud":"0.000000","longitud":"0.000000","municipio_id":"SLU019","provincia_id":"AR-D","id_departamento":"1599","municipio":"Fortuna","provincia":"San Luis","departamento":"Gobernador Dupuy"},{"id":"352","identificador":"SFE245-01","ubicacion":null,"latitud":"-30.984776","longitud":"-61.022562","municipio_id":"SFE245","provincia_id":"AR-S","id_departamento":"1700","municipio":"Providencia","provincia":"Santa Fe","departamento":"Las Colonias"},{"id":"725","identificador":"LRJ017-01","ubicacion":"Municipalidad","latitud":"-29.167194","longitud":"-67.080611","municipio_id":"LRJ017","provincia_id":"AR-F","id_departamento":"1513","municipio":"Sanagasta","provincia":"La Rioja","departamento":"Sanagasta"},{"id":"687","identificador":"SJU007-01","ubicacion":"San Jose de Jachal (Punto Digital)","latitud":"-30.157709","longitud":"-68.482508","municipio_id":"SJU007","provincia_id":"AR-J","id_departamento":"1585","municipio":"Jáchal","provincia":"San Juan","departamento":"Jachal"},{"id":"1214","identificador":"SJU007-02","ubicacion":null,"latitud":"0.000000","longitud":"0.000000","municipio_id":"SJU007","provincia_id":"AR-J","id_departamento":"1585","municipio":"Jáchal","provincia":"San Juan","departamento":"Jachal"},{"id":"680","identificador":"SJU007-03","ubicacion":"C.i.C (Mogna)","latitud":"-30.694928","longitud":"-68.361619","municipio_id":"SJU007","provincia_id":"AR-J","id_departamento":"1585","municipio":"Jáchal","provincia":"San Juan","departamento":"Jachal"},{"id":"1015","identificador":"JUJ002-01","ubicacion":"Alfarcito","latitud":"-23.319888","longitud":"-65.971871","municipio_id":"JUJ002","provincia_id":"AR-Y","id_departamento":"1459","municipio":"Abra Pampa","provincia":"Jujuy","departamento":"Cochinoca"},{"id":"1319","identificador":"JUJ002-02","ubicacion":null,"latitud":"0.000000","longitud":"0.000000","municipio_id":"JUJ002","provincia_id":"AR-Y","id_departamento":"1459","municipio":"Abra Pampa","provincia":"Jujuy","departamento":"Cochinoca"},{"id":"543","identificador":"JUJ002-03","ubicacion":"Rachaite-Escuela","latitud":"-22.829737","longitud":"-66.061072","municipio_id":"JUJ002","provincia_id":"AR-Y","id_departamento":"1459","municipio":"Abra Pampa","provincia":"Jujuy","departamento":"Cochinoca"},{"id":"1320","identificador":"JUJ002-04","ubicacion":null,"latitud":"0.000000","longitud":"0.000000","municipio_id":"JUJ002","provincia_id":"AR-Y","id_departamento":"1459","municipio":"Abra Pampa","provincia":"Jujuy","departamento":"Cochinoca"},{"id":"322","identificador":"MIS023-01","ubicacion":"Colonia Wanda - Polideportivo Municipal","latitud":"-25.972583","longitud":"-54.562444","municipio_id":"MIS023","provincia_id":"AR-N","id_departamento":"1544","municipio":"Colonia Wanda","provincia":"Misiones","departamento":"Iguazu"},{"id":"594","identificador":"CHA028-01","ubicacion":"Municipalidad","latitud":"-27.290889","longitud":"-58.615167","municipio_id":"CHA028","provincia_id":"AR-H","id_departamento":"1360","municipio":"Isla del Cerrito","provincia":"Chaco","departamento":"Bermejo"},{"id":"908","identificador":"RNO041-01","ubicacion":null,"latitud":"-39.982101","longitud":"-68.873688","municipio_id":"RNO041","provincia_id":"AR-R","id_departamento":"1568","municipio":"Aguada Guzmán","provincia":"Río Negro","departamento":"El Cuy"},{"id":"1189","identificador":"TUC055-01","ubicacion":null,"latitud":"0.000000","longitud":"0.000000","municipio_id":"TUC055","provincia_id":"AR-T","id_departamento":"1649","municipio":"Las Talitas","provincia":"Tucumán","departamento":"Tafi Viejo"},{"id":"864","identificador":"MIS068-01","ubicacion":"San Pedro - Anfiteatro Municipal","latitud":"-26.624889","longitud":"-54.111917","municipio_id":"MIS068","provincia_id":"AR-N","id_departamento":"1549","municipio":"San Pedro","provincia":"Misiones","departamento":"San Pedro"},{"id":"694","identificador":"SGO066-01","ubicacion":null,"latitud":"-28.815028","longitud":"-62.843222","municipio_id":"SGO066","provincia_id":"AR-G","id_departamento":"1625","municipio":"Real Sayana","provincia":"Santiago del Estero","departamento":"Avellaneda"},{"id":"1233","identificador":"SAL038-01","ubicacion":null,"latitud":"0.000000","longitud":"0.000000","municipio_id":"SAL038","provincia_id":"AR-A","id_departamento":"1679","municipio":"Molinos","provincia":"Salta","departamento":"Molinos"},{"id":"676","identificador":"JUJ020-01","ubicacion":"Municipalidad","latitud":"-23.550138","longitud":"-64.350222","municipio_id":"JUJ020","provincia_id":"AR-Y","id_departamento":"1468","municipio":"El Talar","provincia":"Jujuy","departamento":"Santa Barbara"},{"id":"1302","identificador":"SAL046-01","ubicacion":null,"latitud":"0.000000","longitud":"0.000000","municipio_id":"SAL046","provincia_id":"AR-A","id_departamento":"1672","municipio":"Rosario de la Frontera","provincia":"Salta","departamento":"Rosario de la Frontera"},{"id":"671","identificador":"TUC036-01","ubicacion":null,"latitud":"0.000000","longitud":"0.000000","municipio_id":"TUC036","provincia_id":"AR-T","id_departamento":"1651","municipio":"El Timbó","provincia":"Tucumán","departamento":"Burruyacu"},{"id":"404","identificador":"SGO035-01","ubicacion":null,"latitud":"0.000000","longitud":"0.000000","municipio_id":"SGO035","provincia_id":"AR-G","id_departamento":"1625","municipio":"Herrera","provincia":"Santiago del Estero","departamento":"Avellaneda"},{"id":"1150","identificador":"MIS059-01","ubicacion":null,"latitud":"0.000000","longitud":"0.000000","municipio_id":"MIS059","provincia_id":"AR-N","id_departamento":"1544","municipio":"Puerto Iguazú","provincia":"Misiones","departamento":"Iguazu"},{"id":"1153","identificador":"MIS059-02","ubicacion":null,"latitud":"0.000000","longitud":"0.000000","municipio_id":"MIS059","provincia_id":"AR-N","id_departamento":"1544","municipio":"Puerto Iguazú","provincia":"Misiones","departamento":"Iguazu"},{"id":"956","identificador":"MIS059-03","ubicacion":"Punto Digital","latitud":"-25.618988","longitud":"-54.585441","municipio_id":"MIS059","provincia_id":"AR-N","id_departamento":"1544","municipio":"Puerto Iguazú","provincia":"Misiones","departamento":"Iguazu"},{"id":"1151","identificador":"MIS059-04","ubicacion":null,"latitud":"0.000000","longitud":"0.000000","municipio_id":"MIS059","provincia_id":"AR-N","id_departamento":"1544","municipio":"Puerto Iguazú","provincia":"Misiones","departamento":"Iguazu"},{"id":"1154","identificador":"MIS059-05","ubicacion":null,"latitud":"0.000000","longitud":"0.000000","municipio_id":"MIS059","provincia_id":"AR-N","id_departamento":"1544","municipio":"Puerto Iguazú","provincia":"Misiones","departamento":"Iguazu"},{"id":"1149","identificador":"MIS059-06","ubicacion":null,"latitud":"0.000000","longitud":"0.000000","municipio_id":"MIS059","provincia_id":"AR-N","id_departamento":"1544","municipio":"Puerto Iguazú","provincia":"Misiones","departamento":"Iguazu"},{"id":"1152","identificador":"MIS059-07","ubicacion":null,"latitud":"0.000000","longitud":"0.000000","municipio_id":"MIS059","provincia_id":"AR-N","id_departamento":"1544","municipio":"Puerto Iguazú","provincia":"Misiones","departamento":"Iguazu"},{"id":"356","identificador":"LAP007-01","ubicacion":"Municipalidad","latitud":"-37.000000","longitud":"-64.000000","municipio_id":"LAP007","provincia_id":"AR-L","id_departamento":"1480","municipio":"Anguil","provincia":"La Pampa","departamento":"Capital"},{"id":"1313","identificador":"CBA233-01","ubicacion":null,"latitud":"0.000000","longitud":"0.000000","municipio_id":"CBA233","provincia_id":"AR-X","id_departamento":"1402","municipio":"Los Talares","provincia":"Córdoba","departamento":"Pocho"},{"id":"611","identificador":"CBA233-02","ubicacion":null,"latitud":"-31.407300","longitud":"-65.046167","municipio_id":"CBA233","provincia_id":"AR-X","id_departamento":"1402","municipio":"Los Talares","provincia":"Córdoba","departamento":"Pocho"},{"id":"529","identificador":"ERI056-01","ubicacion":"Nido Viale","latitud":"-31.866556","longitud":"-59.995889","municipio_id":"ERI056","provincia_id":"AR-E","id_departamento":"1439","municipio":"Viale","provincia":"Entre Ríos","departamento":"Parana"},{"id":"758","identificador":"ERI056-02","ubicacion":null,"latitud":"0.000000","longitud":"0.000000","municipio_id":"ERI056","provincia_id":"AR-E","id_departamento":"1439","municipio":"Viale","provincia":"Entre Ríos","departamento":"Parana"},{"id":"1141","identificador":"CHU004-01","ubicacion":null,"latitud":"0.000000","longitud":"0.000000","municipio_id":"CHU004","provincia_id":"AR-U","id_departamento":"1369","municipio":"Buen Pasto","provincia":"Chubut","departamento":"Sarmiento"},{"id":"659","identificador":"CHU004-02","ubicacion":"salon de usos multiples","latitud":"-45.077583","longitud":"-69.460972","municipio_id":"CHU004","provincia_id":"AR-U","id_departamento":"1369","municipio":"Buen Pasto","provincia":"Chubut","departamento":"Sarmiento"},{"id":"813","identificador":"NEU022-01","ubicacion":null,"latitud":"-37.205639","longitud":"-70.819306","municipio_id":"NEU022","provincia_id":"AR-Q","id_departamento":"1552","municipio":"Los Miches","provincia":"Neuquén","departamento":"Minas"},{"id":"922","identificador":"SJU016-01","ubicacion":"Punto Digital Ullum","latitud":"-31.471888","longitud":"-68.748500","municipio_id":"SJU016","provincia_id":"AR-J","id_departamento":"1594","municipio":"Ullum","provincia":"San Juan","departamento":"Ullum"},{"id":"267","identificador":"SJU016-02","ubicacion":"Plaza Municipio","latitud":"-31.000000","longitud":"-69.000000","municipio_id":"SJU016","provincia_id":"AR-J","id_departamento":"1594","municipio":"Ullum","provincia":"San Juan","departamento":"Ullum"},{"id":"1200","identificador":"SFE257-01","ubicacion":null,"latitud":"0.000000","longitud":"0.000000","municipio_id":"SFE257","provincia_id":"AR-S","id_departamento":"1689","municipio":"Ramona","provincia":"Santa Fe","departamento":"Castellanos"},{"id":"1191","identificador":"RNO065-01","ubicacion":null,"latitud":"0.000000","longitud":"0.000000","municipio_id":"RNO065","provincia_id":"AR-R","id_departamento":"1572","municipio":"Prahuaniyeu","provincia":"Río Negro","departamento":"Nueve de Julio"},{"id":"1039","identificador":"TUC112-01","ubicacion":"Simoca","latitud":"-27.200000","longitud":"-65.283400","municipio_id":"TUC112","provincia_id":"AR-T","id_departamento":"1652","municipio":"Yerba Buena","provincia":"Tucumán","departamento":"Yerba Buena"},{"id":"210","identificador":"TUC112-02","ubicacion":"Edificio Municipal","latitud":"-26.812394","longitud":"-65.298398","municipio_id":"TUC112","provincia_id":"AR-T","id_departamento":"1652","municipio":"Yerba Buena","provincia":"Tucumán","departamento":"Yerba Buena"},{"id":"209","identificador":"TUC112-03","ubicacion":"Punto Digital","latitud":"-26.795523","longitud":"-65.259022","municipio_id":"TUC112","provincia_id":"AR-T","id_departamento":"1652","municipio":"Yerba Buena","provincia":"Tucumán","departamento":"Yerba Buena"},{"id":"794","identificador":"SJU014-01","ubicacion":"Santa Lucia - Pza Sta Lucia","latitud":"-31.540527","longitud":"-68.498478","municipio_id":"SJU014","provincia_id":"AR-J","id_departamento":"1592","municipio":"Santa Lucía","provincia":"San Juan","departamento":"Santa Lucia"},{"id":"795","identificador":"SJU014-02","ubicacion":null,"latitud":"-31.539722","longitud":"-68.498028","municipio_id":"SJU014","provincia_id":"AR-J","id_departamento":"1592","municipio":"Santa Lucía","provincia":"San Juan","departamento":"Santa Lucia"},{"id":"796","identificador":"SJU014-03","ubicacion":null,"latitud":"0.000000","longitud":"0.000000","municipio_id":"SJU014","provincia_id":"AR-J","id_departamento":"1592","municipio":"Santa Lucía","provincia":"San Juan","departamento":"Santa Lucia"},{"id":"615","identificador":"SFE143-01","ubicacion":null,"latitud":"0.000000","longitud":"0.000000","municipio_id":"SFE143","provincia_id":"AR-S","id_departamento":"1684","municipio":"Granadero Baigorria","provincia":"Santa Fe","departamento":"Rosario"},{"id":"1178","identificador":"SFE143-02","ubicacion":null,"latitud":"0.000000","longitud":"0.000000","municipio_id":"SFE143","provincia_id":"AR-S","id_departamento":"1684","municipio":"Granadero Baigorria","provincia":"Santa Fe","departamento":"Rosario"},{"id":"344","identificador":"SFE143-03","ubicacion":null,"latitud":"0.000000","longitud":"0.000000","municipio_id":"SFE143","provincia_id":"AR-S","id_departamento":"1684","municipio":"Granadero Baigorria","provincia":"Santa Fe","departamento":"Rosario"},{"id":"1140","identificador":"LAP029-01","ubicacion":null,"latitud":"0.000000","longitud":"0.000000","municipio_id":"LAP029","provincia_id":"AR-L","id_departamento":"1477","municipio":"General Pico","provincia":"La Pampa","departamento":"Maraco"},{"id":"257","identificador":"SCR010-01","ubicacion":"PD Puerto San Julian","latitud":"-49.309832","longitud":"-67.741390","municipio_id":"SCR010","provincia_id":"AR-Z","id_departamento":"1612","municipio":"Puerto San Julián","provincia":"Santa Cruz","departamento":"Magallanes"},{"id":"191","identificador":"SCR010-02","ubicacion":null,"latitud":"-49.304007","longitud":"-67.736349","municipio_id":"SCR010","provincia_id":"AR-Z","id_departamento":"1612","municipio":"Puerto San Julián","provincia":"Santa Cruz","departamento":"Magallanes"},{"id":"393","identificador":"ERI041-01","ubicacion":null,"latitud":"-33.740027","longitud":"-59.160802","municipio_id":"ERI041","provincia_id":"AR-E","id_departamento":"1438","municipio":"Puerto Ibicuy","provincia":"Entre Ríos","departamento":"Islas del Ibicuy"},{"id":"927","identificador":"MIS069-01","ubicacion":"Punto Digital","latitud":"-26.992889","longitud":"-54.485026","municipio_id":"MIS069","provincia_id":"AR-N","id_departamento":"1546","municipio":"San Vicente","provincia":"Misiones","departamento":"Guarani"},{"id":"765","identificador":"MIS069-02","ubicacion":"C.I.C","latitud":"-26.983750","longitud":"-54.471167","municipio_id":"MIS069","provincia_id":"AR-N","id_departamento":"1546","municipio":"San Vicente","provincia":"Misiones","departamento":"Guarani"},{"id":"862","identificador":"LRJ001-01","ubicacion":null,"latitud":"-28.368085","longitud":"-66.600785","municipio_id":"LRJ001","provincia_id":"AR-F","id_departamento":"1497","municipio":"Arauco","provincia":"La Rioja","departamento":"Arauco"},{"id":"374","identificador":"CBA404-01","ubicacion":null,"latitud":"0.000000","longitud":"0.000000","municipio_id":"CBA404","provincia_id":"AR-X","id_departamento":"1391","municipio":"Villa General Belgrano","provincia":"Córdoba","departamento":"Calamuchita"},{"id":"1263","identificador":"CHU022-01","ubicacion":null,"latitud":"0.000000","longitud":"0.000000","municipio_id":"CHU022","provincia_id":"AR-U","id_departamento":"1376","municipio":"Gastre","provincia":"Chubut","departamento":"Gastre"},{"id":"665","identificador":"CHU022-02","ubicacion":"Municipalidad","latitud":"-42.262611","longitud":"-69.221972","municipio_id":"CHU022","provincia_id":"AR-U","id_departamento":"1376","municipio":"Gastre","provincia":"Chubut","departamento":"Gastre"},{"id":"1264","identificador":"CHU022-03","ubicacion":null,"latitud":"0.000000","longitud":"0.000000","municipio_id":"CHU022","provincia_id":"AR-U","id_departamento":"1376","municipio":"Gastre","provincia":"Chubut","departamento":"Gastre"},{"id":"1260","identificador":"CHU022-04","ubicacion":null,"latitud":"0.000000","longitud":"0.000000","municipio_id":"CHU022","provincia_id":"AR-U","id_departamento":"1376","municipio":"Gastre","provincia":"Chubut","departamento":"Gastre"},{"id":"903","identificador":"NEU045-01","ubicacion":null,"latitud":"-39.261370","longitud":"-68.787508","municipio_id":"NEU045","provincia_id":"AR-Q","id_departamento":"1556","municipio":"Villa el Chocón","provincia":"Neuquén","departamento":"Confluencia"},{"id":"866","identificador":"NEU025-01","ubicacion":"Observatorio","latitud":"-38.955628","longitud":"-68.062727","municipio_id":"NEU025","provincia_id":"AR-Q","id_departamento":"1556","municipio":"Neuquén","provincia":"Neuquén","departamento":"Confluencia"},{"id":"987","identificador":"NEU025-02","ubicacion":"Plazoleta Estados Arabes","latitud":"-38.949086","longitud":"-68.059103","municipio_id":"NEU025","provincia_id":"AR-Q","id_departamento":"1556","municipio":"Neuquén","provincia":"Neuquén","departamento":"Confluencia"},{"id":"865","identificador":"NEU025-03","ubicacion":"ETON","latitud":"-38.978936","longitud":"-68.053433","municipio_id":"NEU025","provincia_id":"AR-Q","id_departamento":"1556","municipio":"Neuquén","provincia":"Neuquén","departamento":"Confluencia"},{"id":"177","identificador":"NEU025-04","ubicacion":"Plaza de las Banderas","latitud":"-38.937717","longitud":"-68.059074","municipio_id":"NEU025","provincia_id":"AR-Q","id_departamento":"1556","municipio":"Neuquén","provincia":"Neuquén","departamento":"Confluencia"},{"id":"170","identificador":"NEU025-05","ubicacion":"Paseo de la Costa - Edificio Celebrar","latitud":"-38.951811","longitud":"-68.059456","municipio_id":"NEU025","provincia_id":"AR-Q","id_departamento":"1556","municipio":"Neuquén","provincia":"Neuquén","departamento":"Confluencia"},{"id":"169","identificador":"NEU025-06","ubicacion":"ECOESTACION (Sarmiento 80)","latitud":"-38.951811","longitud":"-68.059456","municipio_id":"NEU025","provincia_id":"AR-Q","id_departamento":"1556","municipio":"Neuquén","provincia":"Neuquén","departamento":"Confluencia"},{"id":"167","identificador":"NEU025-07","ubicacion":"Parque Central - MNBA","latitud":"-38.955323","longitud":"-68.062438","municipio_id":"NEU025","provincia_id":"AR-Q","id_departamento":"1556","municipio":"Neuquén","provincia":"Neuquén","departamento":"Confluencia"},{"id":"165","identificador":"NEU025-08","ubicacion":"NIDO TOMA NORTE","latitud":"-38.925722","longitud":"-68.115111","municipio_id":"NEU025","provincia_id":"AR-Q","id_departamento":"1556","municipio":"Neuquén","provincia":"Neuquén","departamento":"Confluencia"},{"id":"172","identificador":"NEU025-09","ubicacion":"MAUSOLEO M. OLASCOAGA","latitud":"-38.937587","longitud":"-68.059188","municipio_id":"NEU025","provincia_id":"AR-Q","id_departamento":"1556","municipio":"Neuquén","provincia":"Neuquén","departamento":"Confluencia"},{"id":"173","identificador":"NEU025-10","ubicacion":"Parque Central - Sala Emilio Sarco","latitud":"-38.956392","longitud":"-68.061383","municipio_id":"NEU025","provincia_id":"AR-Q","id_departamento":"1556","municipio":"Neuquén","provincia":"Neuquén","departamento":"Confluencia"},{"id":"174","identificador":"NEU025-11","ubicacion":"Centro - Monumento San Martin 1","latitud":"-38.956392","longitud":"-68.061383","municipio_id":"NEU025","provincia_id":"AR-Q","id_departamento":"1556","municipio":"Neuquén","provincia":"Neuquén","departamento":"Confluencia"},{"id":"175","identificador":"NEU025-12","ubicacion":"Centro - Monumento San Martín 2","latitud":"-38.978936","longitud":"-68.053433","municipio_id":"NEU025","provincia_id":"AR-Q","id_departamento":"1556","municipio":"Neuquén","provincia":"Neuquén","departamento":"Confluencia"},{"id":"166","identificador":"NEU025-13","ubicacion":"Parque Central","latitud":"-38.956392","longitud":"-68.061383","municipio_id":"NEU025","provincia_id":"AR-Q","id_departamento":"1556","municipio":"Neuquén","provincia":"Neuquén","departamento":"Confluencia"},{"id":"171","identificador":"NEU025-14","ubicacion":"Alto Godoy","latitud":"-38.935305","longitud":"-68.237751","municipio_id":"NEU025","provincia_id":"AR-Q","id_departamento":"1556","municipio":"Neuquén","provincia":"Neuquén","departamento":"Confluencia"},{"id":"1138","identificador":"TUC012-01","ubicacion":null,"latitud":"0.000000","longitud":"0.000000","municipio_id":"TUC012","provincia_id":"AR-T","id_departamento":"1646","municipio":"Banda del Río Salí","provincia":"Tucumán","departamento":"Cruz Alta"},{"id":"1186","identificador":"TUC012-02","ubicacion":null,"latitud":"0.000000","longitud":"0.000000","municipio_id":"TUC012","provincia_id":"AR-T","id_departamento":"1646","municipio":"Banda del Río Salí","provincia":"Tucumán","departamento":"Cruz Alta"},{"id":"319","identificador":"MIS032-01","ubicacion":"Oficina de Turismo","latitud":"-26.019639","longitud":"-54.585611","municipio_id":"MIS032","provincia_id":"AR-N","id_departamento":"1544","municipio":"Esperanza","provincia":"Misiones","departamento":"Iguazu"},{"id":"926","identificador":"MIS032-02","ubicacion":"Punto Digital","latitud":"-26.026474","longitud":"-54.612565","municipio_id":"MIS032","provincia_id":"AR-N","id_departamento":"1544","municipio":"Esperanza","provincia":"Misiones","departamento":"Iguazu"},{"id":"778","identificador":"SFE335-01","ubicacion":null,"latitud":"0.000000","longitud":"0.000000","municipio_id":"SFE335","provincia_id":"AR-S","id_departamento":"1692","municipio":"Tortugas","provincia":"Santa Fe","departamento":"Belgrano"},{"id":"1236","identificador":"SAL006-01","ubicacion":null,"latitud":"0.000000","longitud":"0.000000","municipio_id":"SAL006","provincia_id":"AR-A","id_departamento":"1664","municipio":"Cafayate","provincia":"Salta","departamento":"Cafayate"},{"id":"1234","identificador":"SAL006-02","ubicacion":null,"latitud":"0.000000","longitud":"0.000000","municipio_id":"SAL006","provincia_id":"AR-A","id_departamento":"1664","municipio":"Cafayate","provincia":"Salta","departamento":"Cafayate"},{"id":"1235","identificador":"SAL006-03","ubicacion":null,"latitud":"0.000000","longitud":"0.000000","municipio_id":"SAL006","provincia_id":"AR-A","id_departamento":"1664","municipio":"Cafayate","provincia":"Salta","departamento":"Cafayate"},{"id":"799","identificador":"SCR020-01","ubicacion":null,"latitud":"-46.716450","longitud":"-68.226328","municipio_id":"SCR020","provincia_id":"AR-Z","id_departamento":"1607","municipio":"Koluel Kayke","provincia":"Santa Cruz","departamento":"Deseado"},{"id":"600","identificador":"COR062-01","ubicacion":null,"latitud":"-29.506222","longitud":"-56.974639","municipio_id":"COR062","provincia_id":"AR-W","id_departamento":"1411","municipio":"Tapebicuá","provincia":"Corrientes","departamento":"Paso de los Libres"},{"id":"942","identificador":"CBA100-01","ubicacion":"Punto Digital(Parque educativo Zona Sur)","latitud":"-31.467620","longitud":"-64.234233","municipio_id":"CBA100","provincia_id":"AR-X","id_departamento":"1406","municipio":"Córdoba","provincia":"Córdoba","departamento":"Capital"},{"id":"941","identificador":"CBA100-02","ubicacion":"Punto Digital(Parque educativo Zona Noroeste)","latitud":"-31.315716","longitud":"-64.282980","municipio_id":"CBA100","provincia_id":"AR-X","id_departamento":"1406","municipio":"Córdoba","provincia":"Córdoba","departamento":"Capital"},{"id":"103","identificador":"CBA100-03","ubicacion":"Plaza San Martin","latitud":"-31.416775","longitud":"-64.183668","municipio_id":"CBA100","provincia_id":"AR-X","id_departamento":"1406","municipio":"Córdoba","provincia":"Córdoba","departamento":"Capital"},{"id":"104","identificador":"CBA100-04","ubicacion":"Plaza de los Presidentes Argentinos Cordobeses  La Industria","latitud":"-31.408287","longitud":"-64.183825","municipio_id":"CBA100","provincia_id":"AR-X","id_departamento":"1406","municipio":"Córdoba","provincia":"Córdoba","departamento":"Capital"},{"id":"704","identificador":"CHU024-01","ubicacion":"Municipalidad","latitud":"-42.724121","longitud":"-70.535344","municipio_id":"CHU024","provincia_id":"AR-U","id_departamento":"1372","municipio":"Gualjaina","provincia":"Chubut","departamento":"Cushamen"},{"id":"546","identificador":"CAT004-01","ubicacion":null,"latitud":"-26.067757","longitud":"-67.410656","municipio_id":"CAT004","provincia_id":"AR-K","id_departamento":"1332","municipio":"Antofagasta de la Sierra","provincia":"Catamarca","departamento":"Antofagasta de la Sierra"},{"id":"547","identificador":"CAT004-02","ubicacion":null,"latitud":"0.000000","longitud":"0.000000","municipio_id":"CAT004","provincia_id":"AR-K","id_departamento":"1332","municipio":"Antofagasta de la Sierra","provincia":"Catamarca","departamento":"Antofagasta de la Sierra"},{"id":"241","identificador":"BUE049-01","ubicacion":"PD Gral Las Heras","latitud":"-34.931305","longitud":"-58.943948","municipio_id":"BUE049","provincia_id":"AR-B","id_departamento":"1243","municipio":"General las Heras","provincia":"Buenos Aires","departamento":"General las Heras"},{"id":"40","identificador":"BUE049-02","ubicacion":"Estación De Tren (Villars)","latitud":"-34.828756","longitud":"-58.938572","municipio_id":"BUE049","provincia_id":"AR-B","id_departamento":"1243","municipio":"General las Heras","provincia":"Buenos Aires","departamento":"General las Heras"},{"id":"39","identificador":"BUE049-03","ubicacion":"Plaza Principal Las heras (Municipalidad)","latitud":"-34.927194","longitud":"-58.947028","municipio_id":"BUE049","provincia_id":"AR-B","id_departamento":"1243","municipio":"General las Heras","provincia":"Buenos Aires","departamento":"General las Heras"},{"id":"735","identificador":"SFE225-01","ubicacion":"Plaza San Martin","latitud":"-33.643556","longitud":"-61.858056","municipio_id":"SFE225","provincia_id":"AR-S","id_departamento":"1683","municipio":"Murphy","provincia":"Santa Fe","departamento":"General Lopez"},{"id":"607","identificador":"CBA264-01","ubicacion":null,"latitud":"-30.710611","longitud":"-62.007833","municipio_id":"CBA264","provincia_id":"AR-X","id_departamento":"1387","municipio":"Morteros","provincia":"Córdoba","departamento":"San Justo"},{"id":"1126","identificador":"BUE030-01","ubicacion":null,"latitud":"0.000000","longitud":"0.000000","municipio_id":"BUE030","provincia_id":"AR-B","id_departamento":"1224","municipio":"Coronel Dorrego","provincia":"Buenos Aires","departamento":"Coronel Dorrego"},{"id":"1125","identificador":"BUE030-02","ubicacion":null,"latitud":"0.000000","longitud":"0.000000","municipio_id":"BUE030","provincia_id":"AR-B","id_departamento":"1224","municipio":"Coronel Dorrego","provincia":"Buenos Aires","departamento":"Coronel Dorrego"},{"id":"646","identificador":"TUC004-01","ubicacion":null,"latitud":"0.000000","longitud":"0.000000","municipio_id":"TUC004","provincia_id":"AR-T","id_departamento":"1646","municipio":"Alderetes","provincia":"Tucumán","departamento":"Cruz Alta"},{"id":"492","identificador":"BUE114-01","ubicacion":null,"latitud":"-34.446231","longitud":"-58.559798","municipio_id":"BUE114","provincia_id":"AR-B","id_departamento":"1309","municipio":"San Fernando","provincia":"Buenos Aires","departamento":"San Fernando"},{"id":"839","identificador":"BUE046-01","ubicacion":null,"latitud":"-36.651008","longitud":"-57.792496","municipio_id":"BUE046","provincia_id":"AR-B","id_departamento":"1240","municipio":"General Guido","provincia":"Buenos Aires","departamento":"General Guido"},{"id":"753","identificador":"BUE046-02","ubicacion":"PD General Guido","latitud":"-36.641810","longitud":"-57.793289","municipio_id":"BUE046","provincia_id":"AR-B","id_departamento":"1240","municipio":"General Guido","provincia":"Buenos Aires","departamento":"General Guido"},{"id":"304","identificador":"SFE056-01","ubicacion":null,"latitud":"0.000000","longitud":"0.000000","municipio_id":"SFE056","provincia_id":"AR-S","id_departamento":"1696","municipio":"Carrizales","provincia":"Santa Fe","departamento":"Iriondo"},{"id":"1081","identificador":"CAT019-01","ubicacion":null,"latitud":"-28.374893","longitud":"-66.296502","municipio_id":"CAT019","provincia_id":"AR-K","id_departamento":"1341","municipio":"Pomán","provincia":"Catamarca","departamento":"Poman"},{"id":"728","identificador":"SAL018-01","ubicacion":"El Quebrachal - Municipalidad","latitud":"-25.335056","longitud":"-64.020222","municipio_id":"SAL018","provincia_id":"AR-A","id_departamento":"1662","municipio":"El Quebrachal","provincia":"Salta","departamento":"Anta"},{"id":"597","identificador":"COR010-01","ubicacion":"Municipalidad","latitud":"-28.267778","longitud":"-58.122583","municipio_id":"COR010","provincia_id":"AR-W","id_departamento":"1418","municipio":"Colonia Santa Rosa","provincia":"Corrientes","departamento":"Concepcion"},{"id":"1244","identificador":"CAT032-01","ubicacion":null,"latitud":"0.000000","longitud":"0.000000","municipio_id":"CAT032","provincia_id":"AR-K","id_departamento":"1337","municipio":"Tinogasta","provincia":"Catamarca","departamento":"Tinogasta"},{"id":"1048","identificador":"CAT032-02","ubicacion":null,"latitud":"0.000000","longitud":"0.000000","municipio_id":"CAT032","provincia_id":"AR-K","id_departamento":"1337","municipio":"Tinogasta","provincia":"Catamarca","departamento":"Tinogasta"},{"id":"1107","identificador":"CAT032-03","ubicacion":null,"latitud":"0.000000","longitud":"0.000000","municipio_id":"CAT032","provincia_id":"AR-K","id_departamento":"1337","municipio":"Tinogasta","provincia":"Catamarca","departamento":"Tinogasta"},{"id":"1247","identificador":"BUE065-01","ubicacion":null,"latitud":"0.000000","longitud":"0.000000","municipio_id":"BUE065","provincia_id":"AR-B","id_departamento":"1259","municipio":"La Matanza","provincia":"Buenos Aires","departamento":"La Matanza"},{"id":"619","identificador":"BUE031-01","ubicacion":"Municipalidad","latitud":"-37.985397","longitud":"-61.349953","municipio_id":"BUE031","provincia_id":"AR-B","id_departamento":"1225","municipio":"Coronel Pringles","provincia":"Buenos Aires","departamento":"Coronel Pringles"},{"id":"1060","identificador":"BUE031-02","ubicacion":null,"latitud":"0.000000","longitud":"0.000000","municipio_id":"BUE031","provincia_id":"AR-B","id_departamento":"1225","municipio":"Coronel Pringles","provincia":"Buenos Aires","departamento":"Coronel Pringles"},{"id":"235","identificador":"BUE031-03","ubicacion":"Cnel Pringles PD","latitud":"-37.984453","longitud":"-61.357208","municipio_id":"BUE031","provincia_id":"AR-B","id_departamento":"1225","municipio":"Coronel Pringles","provincia":"Buenos Aires","departamento":"Coronel Pringles"},{"id":"620","identificador":"BUE031-04","ubicacion":"Municipalidad","latitud":"-37.983137","longitud":"-61.338150","municipio_id":"BUE031","provincia_id":"AR-B","id_departamento":"1225","municipio":"Coronel Pringles","provincia":"Buenos Aires","departamento":"Coronel Pringles"},{"id":"484","identificador":"BUE031-05","ubicacion":"Hospital Municipal","latitud":"-37.976331","longitud":"-61.360979","municipio_id":"BUE031","provincia_id":"AR-B","id_departamento":"1225","municipio":"Coronel Pringles","provincia":"Buenos Aires","departamento":"Coronel Pringles"},{"id":"621","identificador":"BUE031-06","ubicacion":"Esc N°7","latitud":"-37.982788","longitud":"-61.339934","municipio_id":"BUE031","provincia_id":"AR-B","id_departamento":"1225","municipio":"Coronel Pringles","provincia":"Buenos Aires","departamento":"Coronel Pringles"},{"id":"397","identificador":"ERI022-01","ubicacion":null,"latitud":"0.000000","longitud":"0.000000","municipio_id":"ERI022","provincia_id":"AR-E","id_departamento":"1434","municipio":"General Ramírez","provincia":"Entre Ríos","departamento":"Diamante"},{"id":"550","identificador":"BUE072-01","ubicacion":null,"latitud":"0.000000","longitud":"0.000000","municipio_id":"BUE072","provincia_id":"AR-B","id_departamento":"1267","municipio":"Lobería","provincia":"Buenos Aires","departamento":"Loberia"},{"id":"242","identificador":"BUE072-02","ubicacion":"PD Loberia","latitud":"-38.156621","longitud":"-58.787664","municipio_id":"BUE072","provincia_id":"AR-B","id_departamento":"1267","municipio":"Lobería","provincia":"Buenos Aires","departamento":"Loberia"},{"id":"549","identificador":"BUE072-03","ubicacion":null,"latitud":"0.000000","longitud":"0.000000","municipio_id":"BUE072","provincia_id":"AR-B","id_departamento":"1267","municipio":"Lobería","provincia":"Buenos Aires","departamento":"Loberia"},{"id":"1240","identificador":"SCR007-01","ubicacion":null,"latitud":"0.000000","longitud":"0.000000","municipio_id":"SCR007","provincia_id":"AR-Z","id_departamento":"1611","municipio":"Perito Moreno","provincia":"Santa Cruz","departamento":"Lago Buenos Aires"},{"id":"1241","identificador":"SCR007-02","ubicacion":null,"latitud":"0.000000","longitud":"0.000000","municipio_id":"SCR007","provincia_id":"AR-Z","id_departamento":"1611","municipio":"Perito Moreno","provincia":"Santa Cruz","departamento":"Lago Buenos Aires"},{"id":"647","identificador":"COR002-01","ubicacion":"Colonia 3 de Abril, Municipalidad","latitud":"-28.412444","longitud":"-58.913889","municipio_id":"COR002","provincia_id":"AR-W","id_departamento":"1409","municipio":"Bella Vista","provincia":"Corrientes","departamento":"Bella Vista"},{"id":"519","identificador":"BUE066-01","ubicacion":"Punto Digital","latitud":"-34.889997","longitud":"-57.958288","municipio_id":"BUE066","provincia_id":"AR-B","id_departamento":"1260","municipio":"La Plata","provincia":"Buenos Aires","departamento":"La Plata"},{"id":"522","identificador":"BUE066-02","ubicacion":null,"latitud":"-34.913694","longitud":"-57.951194","municipio_id":"BUE066","provincia_id":"AR-B","id_departamento":"1260","municipio":"La Plata","provincia":"Buenos Aires","departamento":"La Plata"},{"id":"520","identificador":"BUE066-03","ubicacion":"Republica de los Niños","latitud":"-34.913694","longitud":"-57.951194","municipio_id":"BUE066","provincia_id":"AR-B","id_departamento":"1260","municipio":"La Plata","provincia":"Buenos Aires","departamento":"La Plata"},{"id":"523","identificador":"BUE066-04","ubicacion":null,"latitud":"-34.913694","longitud":"-57.951194","municipio_id":"BUE066","provincia_id":"AR-B","id_departamento":"1260","municipio":"La Plata","provincia":"Buenos Aires","departamento":"La Plata"},{"id":"521","identificador":"BUE066-05","ubicacion":null,"latitud":"-34.913694","longitud":"-57.951194","municipio_id":"BUE066","provincia_id":"AR-B","id_departamento":"1260","municipio":"La Plata","provincia":"Buenos Aires","departamento":"La Plata"},{"id":"50","identificador":"BUE066-06","ubicacion":"Punto Digital","latitud":"-34.908507","longitud":"-58.000000","municipio_id":"BUE066","provincia_id":"AR-B","id_departamento":"1260","municipio":"La Plata","provincia":"Buenos Aires","departamento":"La Plata"},{"id":"49","identificador":"BUE066-07","ubicacion":"48 y 7","latitud":"-34.913694","longitud":"-57.951194","municipio_id":"BUE066","provincia_id":"AR-B","id_departamento":"1260","municipio":"La Plata","provincia":"Buenos Aires","departamento":"La Plata"},{"id":"595","identificador":"CHA049-01","ubicacion":"Municipalidad","latitud":"0.000000","longitud":"0.000000","municipio_id":"CHA049","provincia_id":"AR-H","id_departamento":"1352","municipio":"Pampa Almirón","provincia":"Chaco","departamento":"Libertador General San Martin"},{"id":"1196","identificador":"SFE144-01","ubicacion":null,"latitud":"0.000000","longitud":"0.000000","municipio_id":"SFE144","provincia_id":"AR-S","id_departamento":"1701","municipio":"Gregoria Pérez de denis","provincia":"Santa Fe","departamento":"Nueve de Julio"},{"id":"556","identificador":"CBA154-01","ubicacion":"Punto Digital","latitud":"-32.942139","longitud":"-62.235600","municipio_id":"CBA154","provincia_id":"AR-X","id_departamento":"1386","municipio":"Inriville","provincia":"Córdoba","departamento":"Marcos Juarez"},{"id":"824","identificador":"ERI068-01","ubicacion":null,"latitud":"-32.346291","longitud":"-58.443552","municipio_id":"ERI068","provincia_id":"AR-E","id_departamento":"1436","municipio":"Pronunciamiento","provincia":"Entre Ríos","departamento":"Uruguay"},{"id":"336","identificador":"COR048-01","ubicacion":"Municipalidad","latitud":"-27.581917","longitud":"-58.745250","municipio_id":"COR048","provincia_id":"AR-W","id_departamento":"1419","municipio":"Riachuelo","provincia":"Corrientes","departamento":"Capital"},{"id":"780","identificador":"COR048-02","ubicacion":null,"latitud":"-27.572306","longitud":"-58.695278","municipio_id":"COR048","provincia_id":"AR-W","id_departamento":"1419","municipio":"Riachuelo","provincia":"Corrientes","departamento":"Capital"},{"id":"1223","identificador":"CBA107-01","ubicacion":null,"latitud":"0.000000","longitud":"0.000000","municipio_id":"CBA107","provincia_id":"AR-X","id_departamento":"1386","municipio":"Cruz Alta","provincia":"Córdoba","departamento":"Marcos Juarez"},{"id":"609","identificador":"CBA107-02","ubicacion":"Municipalidad","latitud":"-33.006861","longitud":"-61.812167","municipio_id":"CBA107","provincia_id":"AR-X","id_departamento":"1386","municipio":"Cruz Alta","provincia":"Córdoba","departamento":"Marcos Juarez"},{"id":"1222","identificador":"CBA107-03","ubicacion":null,"latitud":"0.000000","longitud":"0.000000","municipio_id":"CBA107","provincia_id":"AR-X","id_departamento":"1386","municipio":"Cruz Alta","provincia":"Córdoba","departamento":"Marcos Juarez"},{"id":"946","identificador":"BUE032-01","ubicacion":"PD Huanguelen","latitud":"-37.062466","longitud":"-61.938720","municipio_id":"BUE032","provincia_id":"AR-B","id_departamento":"1226","municipio":"Coronel Suárez","provincia":"Buenos Aires","departamento":"Coronel Suarez"},{"id":"760","identificador":"CHU029-01","ubicacion":"Las Plumas","latitud":"-43.721630","longitud":"-67.284477","municipio_id":"CHU029","provincia_id":"AR-U","id_departamento":"1378","municipio":"Las Plumas","provincia":"Chubut","departamento":"Martires"},{"id":"531","identificador":"RNO009-01","ubicacion":"Cipoletti After wire4","latitud":"-38.939164","longitud":"-67.995215","municipio_id":"RNO009","provincia_id":"AR-R","id_departamento":"1569","municipio":"Cipolletti","provincia":"Río Negro","departamento":"General Roca"},{"id":"924","identificador":"RNO009-02","ubicacion":"Punto Digital Cipolleti","latitud":"-38.920682","longitud":"-67.968413","municipio_id":"RNO009","provincia_id":"AR-R","id_departamento":"1569","municipio":"Cipolletti","provincia":"Río Negro","departamento":"General Roca"},{"id":"1187","identificador":"TUC086-01","ubicacion":null,"latitud":"0.000000","longitud":"0.000000","municipio_id":"TUC086","provincia_id":"AR-T","id_departamento":"1659","municipio":"San Miguel de Tucumán","provincia":"Tucumán","departamento":"Capital"},{"id":"1188","identificador":"TUC086-02","ubicacion":null,"latitud":"0.000000","longitud":"0.000000","municipio_id":"TUC086","provincia_id":"AR-T","id_departamento":"1659","municipio":"San Miguel de Tucumán","provincia":"Tucumán","departamento":"Capital"},{"id":"219","identificador":"TUC086-03","ubicacion":"Punto Digital","latitud":"-26.826278","longitud":"-65.200541","municipio_id":"TUC086","provincia_id":"AR-T","id_departamento":"1659","municipio":"San Miguel de Tucumán","provincia":"Tucumán","departamento":"Capital"},{"id":"347","identificador":"TUC030-01","ubicacion":null,"latitud":"0.000000","longitud":"0.000000","municipio_id":"TUC030","provincia_id":"AR-T","id_departamento":"1648","municipio":"El Mollar","provincia":"Tucumán","departamento":"Tafi del Valle"},{"id":"317","identificador":"MIS047-01","ubicacion":null,"latitud":"0.000000","longitud":"0.000000","municipio_id":"MIS047","provincia_id":"AR-N","id_departamento":"1544","municipio":"Puerto Libertad","provincia":"Misiones","departamento":"Iguazu"},{"id":"1206","identificador":"SFE348-01","ubicacion":null,"latitud":"0.000000","longitud":"0.000000","municipio_id":"SFE348","provincia_id":"AR-S","id_departamento":"1696","municipio":"Villa Eloisa","provincia":"Santa Fe","departamento":"Iriondo"},{"id":"1306","identificador":"SAL020-01","ubicacion":null,"latitud":"0.000000","longitud":"0.000000","municipio_id":"SAL020","provincia_id":"AR-A","id_departamento":"1660","municipio":"Embarcación","provincia":"Salta","departamento":"General Jose de San Martin"},{"id":"717","identificador":"JUJ011-01","ubicacion":"Municipalidad","latitud":"-23.866722","longitud":"-67.000083","municipio_id":"JUJ011","provincia_id":"AR-Y","id_departamento":"1465","municipio":"Catua","provincia":"Jujuy","departamento":"Susques"},{"id":"1143","identificador":"BUE101-01","ubicacion":null,"latitud":"0.000000","longitud":"0.000000","municipio_id":"BUE101","provincia_id":"AR-B","id_departamento":"1296","municipio":"Quilmes","provincia":"Buenos Aires","departamento":"Quilmes"},{"id":"1144","identificador":"BUE101-02","ubicacion":null,"latitud":"0.000000","longitud":"0.000000","municipio_id":"BUE101","provincia_id":"AR-B","id_departamento":"1296","municipio":"Quilmes","provincia":"Buenos Aires","departamento":"Quilmes"},{"id":"1142","identificador":"BUE101-03","ubicacion":null,"latitud":"0.000000","longitud":"0.000000","municipio_id":"BUE101","provincia_id":"AR-B","id_departamento":"1296","municipio":"Quilmes","provincia":"Buenos Aires","departamento":"Quilmes"},{"id":"85","identificador":"BUE101-04","ubicacion":"Plaza","latitud":"-34.770216","longitud":"-58.321618","municipio_id":"BUE101","provincia_id":"AR-B","id_departamento":"1296","municipio":"Quilmes","provincia":"Buenos Aires","departamento":"Quilmes"},{"id":"86","identificador":"BUE101-05","ubicacion":"Punto Digital","latitud":"-34.770216","longitud":"-58.321618","municipio_id":"BUE101","provincia_id":"AR-B","id_departamento":"1296","municipio":"Quilmes","provincia":"Buenos Aires","departamento":"Quilmes"},{"id":"84","identificador":"BUE101-06","ubicacion":"Punto Digital","latitud":"-34.747949","longitud":"-58.329872","municipio_id":"BUE101","provincia_id":"AR-B","id_departamento":"1296","municipio":"Quilmes","provincia":"Buenos Aires","departamento":"Quilmes"},{"id":"83","identificador":"BUE101-07","ubicacion":"Estacion de Tren","latitud":"-34.703624","longitud":"-58.295849","municipio_id":"BUE101","provincia_id":"AR-B","id_departamento":"1296","municipio":"Quilmes","provincia":"Buenos Aires","departamento":"Quilmes"},{"id":"82","identificador":"BUE101-08","ubicacion":"Parque","latitud":"-34.744316","longitud":"-58.261085","municipio_id":"BUE101","provincia_id":"AR-B","id_departamento":"1296","municipio":"Quilmes","provincia":"Buenos Aires","departamento":"Quilmes"},{"id":"1238","identificador":"TUC007-01","ubicacion":null,"latitud":"0.000000","longitud":"0.000000","municipio_id":"TUC007","provincia_id":"AR-T","id_departamento":"1648","municipio":"Amaichá del Valle","provincia":"Tucumán","departamento":"Tafi del Valle"},{"id":"1239","identificador":"TUC007-02","ubicacion":null,"latitud":"0.000000","longitud":"0.000000","municipio_id":"TUC007","provincia_id":"AR-T","id_departamento":"1648","municipio":"Amaichá del Valle","provincia":"Tucumán","departamento":"Tafi del Valle"},{"id":"1249","identificador":"SFE284-01","ubicacion":null,"latitud":"0.000000","longitud":"0.000000","municipio_id":"SFE284","provincia_id":"AR-S","id_departamento":"1693","municipio":"San Genaro","provincia":"Santa Fe","departamento":"San Jeronimo"},{"id":"560","identificador":"MIS016-01","ubicacion":"Municipalidad","latitud":"-27.633306","longitud":"-55.496972","municipio_id":"MIS016","provincia_id":"AR-N","id_departamento":"1534","municipio":"Cerro Azul","provincia":"Misiones","departamento":"Leandro N. Alem"},{"id":"855","identificador":"SJU008-01","ubicacion":"Las Chacritas(Escuela Procesa Sarmiento de Lenoir)","latitud":"-32.000000","longitud":"-68.000000","municipio_id":"SJU008","provincia_id":"AR-J","id_departamento":"1586","municipio":"Nueve de Julio","provincia":"San Juan","departamento":"Nueve de Julio"},{"id":"384","identificador":"SJU008-02","ubicacion":"Punto Digital","latitud":"-31.669235","longitud":"-68.390480","municipio_id":"SJU008","provincia_id":"AR-J","id_departamento":"1586","municipio":"Nueve de Julio","provincia":"San Juan","departamento":"Nueve de Julio"},{"id":"933","identificador":"JUJ024-01","ubicacion":"Tres Cruces (Municipio)","latitud":"-23.000000","longitud":"-66.000000","municipio_id":"JUJ024","provincia_id":"AR-Y","id_departamento":"1467","municipio":"Humahuaca","provincia":"Jujuy","departamento":"Humahuaca"},{"id":"934","identificador":"JUJ024-02","ubicacion":"Humahuaca Punto Digital","latitud":"-23.204077","longitud":"-65.348388","municipio_id":"JUJ024","provincia_id":"AR-Y","id_departamento":"1467","municipio":"Humahuaca","provincia":"Jujuy","departamento":"Humahuaca"},{"id":"818","identificador":"CBA221-01","ubicacion":null,"latitud":"-33.399748","longitud":"-63.472012","municipio_id":"CBA221","provincia_id":"AR-X","id_departamento":"1385","municipio":"Los Cisnes","provincia":"Córdoba","departamento":"Juarez Celman"},{"id":"781","identificador":"CHA046-01","ubicacion":null,"latitud":"-25.649611","longitud":"-60.927278","municipio_id":"CHA046","provincia_id":"AR-H","id_departamento":"1358","municipio":"Miraflores","provincia":"Chaco","departamento":"General Güemes"},{"id":"1204","identificador":"SFE264-01","ubicacion":null,"latitud":"0.000000","longitud":"0.000000","municipio_id":"SFE264","provincia_id":"AR-S","id_departamento":"1684","municipio":"Rosario","provincia":"Santa Fe","departamento":"Rosario"},{"id":"1349","identificador":"RNO045-01","ubicacion":null,"latitud":"0.000000","longitud":"0.000000","municipio_id":"RNO045","provincia_id":"AR-R","id_departamento":"1572","municipio":"Cona Niyeu","provincia":"Río Negro","departamento":"Nueve de Julio"},{"id":"1317","identificador":"TUC100-01","ubicacion":null,"latitud":"0.000000","longitud":"0.000000","municipio_id":"TUC100","provincia_id":"AR-T","id_departamento":"1648","municipio":"Tafí del Valle","provincia":"Tucumán","departamento":"Tafi del Valle"},{"id":"1316","identificador":"TUC100-02","ubicacion":null,"latitud":"0.000000","longitud":"0.000000","municipio_id":"TUC100","provincia_id":"AR-T","id_departamento":"1648","municipio":"Tafí del Valle","provincia":"Tucumán","departamento":"Tafi del Valle"},{"id":"208","identificador":"TUC100-03","ubicacion":"Plaza Gdor Critto","latitud":"-26.852627","longitud":"-65.710831","municipio_id":"TUC100","provincia_id":"AR-T","id_departamento":"1648","municipio":"Tafí del Valle","provincia":"Tucumán","departamento":"Tafi del Valle"},{"id":"826","identificador":"SGO081-01","ubicacion":null,"latitud":"-27.961667","longitud":"-62.610444","municipio_id":"SGO081","provincia_id":"AR-G","id_departamento":"1630","municipio":"Vilelas","provincia":"Santiago del Estero","departamento":"Juan Felipe Ibarra"},{"id":"1198","identificador":"SFE073-01","ubicacion":null,"latitud":"0.000000","longitud":"0.000000","municipio_id":"SFE073","provincia_id":"AR-S","id_departamento":"1689","municipio":"Colonia Aldao","provincia":"Santa Fe","departamento":"Castellanos"},